stop_id,stop_code,stop_name,stop_desc,stop_lat,stop_lon,zone_id,stop_url,location_type,parent_station,stop_timezone,wheelchair_boarding
10,,"AVENIDA CEL CARVALHO, 1135",,-3.702286,-38.590602,,,0,,,
1000,,"RUA DOR JOAO MOREIRA, 489",,-3.722157,-38.528991,,,0,,,
1001,,"RUA DOR JOAO MOREIRA, 163",,-3.723169,-38.526007,,,0,,,
1010,,"AVENIDA IMPERADOR, 550",,-3.726137,-38.534206,,,0,,,
1013,,"AVENIDA IMPERADOR, 262",,-3.72369,-38.533477,,,0,,,
1014,,"RUA SAO PAULO, 955",,-3.723879,-38.534034,,,0,,,
1015,,"RUA GUILHERME ROCHA, 1048",,-3.724543,-38.535467,,,0,,,
102,,"RUA BETA, 202",,-3.71436,-38.600778,,,0,,,
1025,,"RUA CASTRO E SILVA, 409",,-3.723266,-38.529181,,,0,,,
1029,,"AVENIDA TRISTAO GONCALVES, 211",,-3.723792,-38.532204,,,0,,,
103,,"RUA DOR QUIXADA FELICIO, 441",,-3.709547,-38.597229,,,0,,,
1030,,"RUA CASTRO E SILVA, 181",,-3.723972,-38.527042,,,0,,,
1032,,"RUA CASTRO E SILVA, 38",,-3.724408,-38.525696,,,0,,,
1033,,"RUA SENA MADUREIRA, 761",,-3.725933,-38.525604,,,0,,,
1037,,"RUA DES GEMINIANO JUREMA, 85",,-3.768659,-38.438854,,,0,,,
1038,,"RUA MIRTES CORDEIRO, 3720",,-3.781905,-38.622155,,,0,,,
1043,,"AVENIDA H CJ CEARA, 3437",,-3.77688,-38.620167,,,0,,,
1044,,"AVENIDA H CJ CEARA, 3439",,-3.776907,-38.620458,,,0,,,
1045,,"AVENIDA J CJ CEARA, 291",,-3.776393,-38.621114,,,0,,,
1046,,"AVENIDA J CJ CEARA, 1015",,-3.776785,-38.621323,,,0,,,
1047,,"AVENIDA J CJ CEARA, 1015",,-3.775592,-38.62069,,,0,,,
1048,,"AVENIDA J CJ CEARA, 2898",,-3.773589,-38.619656,,,0,,,
1049,,"AVENIDA H CJ CEARA, 2285",,-3.776681,-38.6181,,,0,,,
1050,,"AVENIDA H CJ CEARA, 2280 B",,-3.776688,-38.618163,,,0,,,
1052,,"AVENIDA H CJ CEARA, 1991 A",,-3.776489,-38.616184,,,0,,,
1053,,"AVENIDA H CJ CEARA, 1992",,-3.776471,-38.616026,,,0,,,
1054,,"AVENIDA C CJ CEARA, 2104",,-3.776336,-38.616402,,,0,,,
1055,,"AVENIDA C CJ CEARA, 1799",,-3.774291,-38.615799,,,0,,,
1056,,"AVENIDA C CJ CEARA, 1799",,-3.774166,-38.615762,,,0,,,
1057,,"AVENIDA H CJ CEARA, 1802",,-3.776331,-38.614678,,,0,,,
1058,,"AVENIDA SOUSA CARVALHO, 3619",,-3.776277,-38.614124,,,0,,,
106,,"RUA BENU MARCONDES, 600",,-3.711873,-38.599268,,,0,,,
1060,,"AVENIDA H CJ CEARA, 1610",,-3.776121,-38.612759,,,0,,,
1061,,"AVENIDA H CJ CEARA, 1476 A",,-3.77595,-38.611242,,,0,,,
1062,,"AVENIDA 343 A CJ CEARA, 1456",,-3.775941,-38.611194,,,0,,,
1063,,"RUA BARRA VERMELHA, 2362 A",,-3.77774,-38.611989,,,0,,,
1069,,"RUA IRACEMA, 930",,-3.845492,-38.528994,,,0,,,
107,,"RUA BENU MARCONDES, 421",,-3.712159,-38.597565,,,0,,,
1070,,"RUA ANGELA DINIZ, 930",,-3.845384,-38.528904,,,0,,,
1077,,"AVENIDA EDILSON B SOARES, 1471",,-3.788761,-38.472513,,,0,,,
1079,,"AVENIDA WASHINGTON SOARES, 3840",,-3.789997,-38.48055,,,0,,,
1080,,"AVENIDA WASHINGTON SOARES, 3340",,-3.787602,-38.480602,,,0,,,
1082,,"AVENIDA WASHINGTON SOARES, SN",,-3.785908,-38.480994,,,0,,,
1083,,"AVENIDA WASHINGTON SOARES, SN",,-3.7826,-38.481153,,,0,,,
1084,,"AVENIDA WASHINGTON SOARES, SN",,-3.782528,-38.481016,,,0,,,
1085,,"RUA ESTRADA DA URUCUTUBA, 2181",,-3.798755,-38.616675,,,0,,,
1086,,"RUA ESTRADA DA URUCUTUBA, 2191",,-3.79883,-38.616669,,,0,,,
1087,,"RUA NS 02 RES BOM JARDIM, 163",,-3.798528,-38.617369,,,0,,,
1089,,"ESTRADA DA URUCUTUBA, 1956",,-3.798536,-38.614211,,,0,,,
1090,,"ESTRADA DA URUCUTUBA, 1966",,-3.798441,-38.614158,,,0,,,
1091,,"ESTRADA DA URUCUTUBA, 1758",,-3.798107,-38.612021,,,0,,,
1092,,"ESTRADA DA URUCUTUBA, 1795",,-3.798204,-38.612187,,,0,,,
1093,,"RUA BARRA MANSA, 342",,-3.79565,-38.611507,,,0,,,
1094,,"RUA BARRA MANSA, 638",,-3.794767,-38.614231,,,0,,,
1095,,"RUA FRANCISCO PAIVA, 1032",,-3.791265,-38.614406,,,0,,,
1096,,"RUA FRANCISCO PAIVA, 1034",,-3.791007,-38.614329,,,0,,,
1097,,"RUA FRANCISCO PAIVA, 1326",,-3.793495,-38.615116,,,0,,,
1098,,"RUA FRANCISCO PAIVA, 1430",,-3.794798,-38.615538,,,0,,,
1099,,"ESTRADA DA URUCUTUBA, SN",,-3.799186,-38.619215,,,0,,,
11,,"AVENIDA CEL CARVALHO, 116",,-3.703397,-38.591645,,,0,,,
1100,,"AVENIDA WASHINGTON SOARES, SN",,-3.791062,-38.480304,,,0,,,
1101,,"AVENIDA WASHINGTON SOARES, S/N",,-3.794761,-38.479932,,,0,,,
1104,,"AVENIDA ENG LEAL LIMA VERDE, 565",,-3.793306,-38.475911,,,0,,,
1105,,"AVENIDA GOMES DE FREITAS, 2985",,-3.79549,-38.47757,,,0,,,
1106,,"RUA CEL OLEGARIO MEMORIA, 1602",,-3.791412,-38.47389,,,0,,,
1107,,"AVENIDA SAPIRANGA, 465",,-3.791415,-38.47106,,,0,,,
1108,,"RUA EUCLIDES O DE SOUSA, 935",,-3.797549,-38.471963,,,0,,,
1109,,"RUA EUCLIDES O DE SOUSA, 880",,-3.79769,-38.473567,,,0,,,
1110,,"RUA EUCLIDES O DE SOUSA, 451",,-3.797898,-38.475842,,,0,,,
1111,,"RUA EUCLIDES O DE SOUSA, 301",,-3.798098,-38.478236,,,0,,,
1112,,"AVENIDA WASHINGTON SOARES, 4600",,-3.799236,-38.479559,,,0,,,
1113,,"AVENIDA WASHINGTON SOARES, 4393",,-3.796708,-38.479977,,,0,,,
1114,,"AVENIDA OLIVEIRA PAIVA, 2885",,-3.795625,-38.479096,,,0,,,
1116,,"AVENIDA I CJ JOSE WALTER, 360",,-3.827377,-38.551411,,,0,,,
1117,,"AVENIDA I CJ JOSE WALTER, 890",,-3.829824,-38.552161,,,0,,,
1118,,"AVENIDA I CJ JOSE WALTER, 670",,-3.82989,-38.552181,,,0,,,
1119,,"AVENIDA L CJ JOSE WALTER, 390",,-3.828096,-38.556639,,,0,,,
1120,,"RUA 69 CJ JOSE WALTER, S/N",,-3.830487,-38.554696,,,0,,,
1121,,"AVENIDA J CJ JOSE WALTER, 780",,-3.831916,-38.555933,,,0,,,
1124,,"AVENIDA J CJ JOSE WALTER, 291",,-3.833825,-38.556505,,,0,,,
1125,,"AVENIDA J CJ JOSE WALTER, SN",,-3.834694,-38.556779,,,0,,,
1127,,"RUA PERGENTINO MAIA, 380",,-3.830969,-38.492044,,,0,,,
1128,,"RUA PERGENTINO MAIA, 613",,-3.831314,-38.489536,,,0,,,
1129,,"AVENIDA CEL DIONISIO ALENCAR, 350",,-3.831276,-38.487595,,,0,,,
1130,,"AVENIDA CEL DIONISIO ALENCAR, 144",,-3.829334,-38.486846,,,0,,,
1132,,"RUA DOR JOAQUIM BENTO, 820",,-3.8283,-38.484261,,,0,,,
1133,,"RUA DOR JOAQUIM BENTO, 510",,-3.828294,-38.484995,,,0,,,
1134,,"RUA MARIA JOSE WEYNE, 122",,-3.828972,-38.48494,,,0,,,
1135,,"RUA GUILHERME PESSOA, 1361",,-3.827725,-38.482999,,,0,,,
1136,,"AVENIDA WASHINGTON SOARES, 8776",,-3.828385,-38.482155,,,0,,,
114,,"RUA DOR QUIXADA FELICIO, 241",,-3.710083,-38.595365,,,0,,,
1140,,"RUA MANUEL C BRANCO, 1195",,-3.833601,-38.4842,,,0,,,
1144,,"RUA MANUEL C BRANCO, 1011",,-3.833366,-38.485887,,,0,,,
1146,,"AVENIDA GURGEL DO AMARAL, 1240",,-3.836204,-38.48512,,,0,,,
1147,,"AVENIDA GURGEL DO AMARAL, 549",,-3.833394,-38.490746,,,0,,,
1150,,"AVENIDA TEN GURGEL DO AMARAL, 270",,-3.832955,-38.492441,,,0,,,
1151,,"RUA JOSE BELCHIOR, 535",,-3.829153,-38.480681,,,0,,,
1152,,"RUA JOSE PEREIRA BARROS, 80",,-3.828334,-38.479341,,,0,,,
1153,,"RUA CEL JUSTINO F RAMOS, 351",,-3.829215,-38.474971,,,0,,,
1154,,"RUA CEL JUSTINO F RAMOS, 630",,-3.831481,-38.475387,,,0,,,
1155,,"RUA CEL JUSTINO F RAMOS, 630",,-3.831622,-38.475416,,,0,,,
1157,,"RUA E CJ RESD GUAJERU, 401",,-3.834629,-38.477911,,,0,,,
1158,,"RUA SOCORRO GOMES, 413",,-3.834676,-38.477945,,,0,,,
1159,,"RUA B CJ RESD GUAJERU, 23",,-3.83552,-38.477973,,,0,,,
116,,"AVENIDA J CJ POLAR, 10",,-3.709968,-38.596508,,,0,,,
1160,,"RUA B CJ RESD GUAJERU, 434",,-3.835863,-38.478212,,,0,,,
1161,,"RUA B CJ RESD GUAJERU, 295",,-3.834809,-38.477462,,,0,,,
1162,,"RUA SOCORRO GOMES, 239",,-3.833506,-38.477097,,,0,,,
1163,,"RUA D CJ RESD GUAJERU, 112",,-3.833415,-38.476457,,,0,,,
1164,,"RUA B CJ RESD GUAJERU, 101",,-3.833297,-38.476372,,,0,,,
1165,,"RUA JOAO ARAUJO LIMA, 1631",,-3.836641,-38.561387,,,0,,,
1167,,"RUA JOAO ARAUJO LIMA, 1771",,-3.837375,-38.561634,,,0,,,
1168,,"RUA JOAO ARAUJO LIMA, 1911",,-3.838819,-38.561843,,,0,,,
1169,,"AVENIDA L CJ JOSE WALTER, 1300",,-3.836309,-38.559093,,,0,,,
117,,"AVENIDA MOZART P.LUCENA, 1211",,-3.713349,-38.594275,,,0,,,
1170,,"AVENIDA L CJ JOSE WALTER, S/N",,-3.837536,-38.559458,,,0,,,
1173,,"AVENIDA L CJ JOSE WALTER, 1560",,-3.839198,-38.55997,,,0,,,
1175,,"AVENIDA J CJ JOSE WALTER, 1300",,-3.836358,-38.557294,,,0,,,
1177,,"AVENIDA J CJ JOSE WALTER, 670",,-3.839749,-38.558304,,,0,,,
1179,,"AVENIDA H CJ JOSE WALTER, 480",,-3.84092,-38.559788,,,0,,,
1180,,"AVENIDA DOS MARINHEIROS, 654",,-3.843241,-38.563777,,,0,,,
1181,,"AVENIDA DOS MARINHEIROS, 654",,-3.843162,-38.563857,,,0,,,
1182,,"RUA JOAO ARAUJO LIMA, 2196",,-3.841217,-38.562454,,,0,,,
1183,,"AVENIDA DOS MARINHEIROS, 750",,-3.843435,-38.56512,,,0,,,
1184,,"AVENIDA I CJ JOSE WALTER, 1480",,-3.836948,-38.554316,,,0,,,
1185,,"AVENIDA 95 CJ JOSE WALTER, 60",,-3.83891,-38.555452,,,0,,,
1186,,"AVENIDA G CJ JOSE WALTER, 290",,-3.838353,-38.55722,,,0,,,
1191,,"RUA STA EFIGENIA, 115",,-3.834967,-38.500596,,,0,,,
1193,,"RUA ANGELICA GURGEL, SN",,-3.835369,-38.499074,,,0,,,
1196,,"RUA GUARUJA, 404",,-3.834812,-38.497901,,,0,,,
1197,,"RUA GUARUJA, 336",,-3.834846,-38.496317,,,0,,,
1199,,"AVENIDA TEN JURANDIR DE ALENCAR, SN",,-3.832307,-38.49751,,,0,,,
12,,"AVENIDA CEL CARVALHO, 163",,-3.703877,-38.591409,,,0,,,
120,,"AVENIDA DOM ALOISIO LORSCHEIDER, 1183",,-3.715936,-38.597278,,,0,,,
1201,,"AVENIDA FREI CIRILO, 126",,-3.828818,-38.493621,,,0,,,
1202,,"AVENIDA FREI CIRILO, 81",,-3.828086,-38.493434,,,0,,,
1203,,"RUA MANUEL C BRANCO, 54",,-3.831666,-38.495075,,,0,,,
1204,,"RUA EDUARDO PORTO, 57",,-3.832717,-38.494949,,,0,,,
1206,,"RUA MANUEL C BRANCO, 316",,-3.831807,-38.4927,,,0,,,
1207,,"RUA GUARUJA, 626",,-3.83487,-38.494954,,,0,,,
1209,,"RUA PDE PEDRO DE ALENCAR, 888",,-3.835451,-38.494138,,,0,,,
1210,,"RUA PDE PEDRO DE ALENCAR, 888",,-3.835772,-38.494147,,,0,,,
1211,,"AVENIDA MON TABOSA, 84",,-3.72303,-38.522229,,,0,,,
1212,,"RUA PESSOA ANTA, 96",,-3.721115,-38.522037,,,0,,,
1213,,"RUA PESSOA ANTA, 57",,-3.721126,-38.522126,,,0,,,
1214,,"AVENIDA ALBERTO NEPOMUCENO, SN",,-3.723415,-38.524429,,,0,,,
1215,,"AVENIDA ALBERTO NEPOMUCENO, SN",,-3.722916,-38.524008,,,0,,,
1216,,"AVENIDA ALM BARROSO, 511",,-3.720675,-38.518805,,,0,,,
1217,,"RUA ALM BARROSO, 411",,-3.720799,-38.519724,,,0,,,
1218,,"RUA ALM JACEGUAI, SN",,-3.721442,-38.519336,,,0,,,
1219,,"AVENIDA ALM BARROSO, 714",,-3.720403,-38.516762,,,0,,,
122,,"AVENIDA AMBIENTALISTA ARY THIERS, 235",,-3.71618,-38.597431,,,0,,,
1220,,"AVENIDA ALM BARROSO, 668",,-3.720523,-38.517649,,,0,,,
1221,,"RUA RUFINO DE ALENCAR, 346",,-3.724039,-38.520141,,,0,,,
1222,,"AVENIDA DOM MANUEL, 3",,-3.724059,-38.519657,,,0,,,
1223,,"AVENIDA DOM MANUEL, 140",,-3.725355,-38.520185,,,0,,,
1224,,"AVENIDA DOM MANUEL, 283",,-3.726753,-38.520539,,,0,,,
1225,,"RUA PEREIRA FILGUEIRAS, 442",,-3.726491,-38.518643,,,0,,,
1226,,"RUA TEN BENEVOLO, 284",,-3.72494,-38.518592,,,0,,,
1227,,"RUA PEREIRA FILGUEIRAS, 713",,-3.727148,-38.516619,,,0,,,
1228,,"RUA TEN BENEVOLO, 595",,-3.725778,-38.515848,,,0,,,
1229,,"RUA TEN BENEVOLO, 765",,-3.726253,-38.514299,,,0,,,
123,,"AVENIDA AMBIENTALISRA  ARY THIERS, 241",,-3.716272,-38.597994,,,0,,,
1230,,"RUA RUFINO DE ALENCAR, 100",,-3.724302,-38.522965,,,0,,,
1231,,"AVENIDA HIS RAIMUNDO GIRAO, 412",,-3.720717,-38.512219,,,0,,,
1232,,"AVENIDA HIS RAIMUNDO GIRAO, 363",,-3.720523,-38.513173,,,0,,,
1236,,"RUA TEN BENEVOLO, 1022",,-3.727061,-38.512014,,,0,,,
124,,"AVENIDA D CJ PLANALTO BARRA, 1273",,-3.715787,-38.598861,,,0,,,
1240,,"AVENIDA BAR STUDART, 300",,-3.726733,-38.504122,,,0,,,
1244,,"AVENIDA MON TABOSA, 176",,-3.724429,-38.505883,,,0,,,
1245,,"AVENIDA ABOLICAO, SN",,-3.725558,-38.500762,,,0,,,
1246,,"AVENIDA ABOLICAO, 2026",,-3.725654,-38.500881,,,0,,,
1248,,"AVENIDA ABOLICAO, 2456",,-3.726891,-38.497018,,,0,,,
1249,,"AVENIDA ABOLICAO, 2456",,-3.726804,-38.496879,,,0,,,
125,,"AVENIDA ERS, 607",,-3.715399,-38.599995,,,0,,,
1250,,"AVENIDA ABOLICAO, SN",,-3.726116,-38.499006,,,0,,,
1251,,"AVENIDA ABOLICAO, 3000",,-3.72696,-38.4928,,,0,,,
1253,,"AVENIDA ABOLICAO, 2727",,-3.727269,-38.494787,,,0,,,
1254,,"AVENIDA ABOLICAO, 2727",,-3.727185,-38.494929,,,0,,,
1256,,"AVENIDA ABOLICAO, 3273",,-3.726532,-38.489988,,,0,,,
1257,,"AVENIDA JULIO IBIAPINA, 222",,-3.727361,-38.491243,,,0,,,
1258,,"AVENIDA ABOLICAO, 3207",,-3.72656,-38.49098,,,0,,,
126,,"AVENIDA J CJ POLAR, 1416",,-3.717613,-38.598662,,,0,,,
1260,,"AVENIDA ABOLICAO, 3555",,-3.726058,-38.487029,,,0,,,
1261,,"AVENIDA ABOLICAO, 3555",,-3.725935,-38.487058,,,0,,,
1263,,"AVENIDA ABOLICAO, 3796",,-3.725627,-38.4857,,,0,,,
1264,,"AVENIDA ABOLICAO, 4140",,-3.724606,-38.482759,,,0,,,
1265,,"AVENIDA ABOLICAO, SN",,-3.725369,-38.484131,,,0,,,
1266,,"AVENIDA ABOLICAO, SN",,-3.72525,-38.484145,,,0,,,
1269,,"RUA PRO ALVARO COSTA, 195",,-3.723007,-38.464454,,,0,,,
127,,"AVENIDA MOZART P.LUCENA, 1720",,-3.717707,-38.595537,,,0,,,
1270,,"AVENIDA CESAR CALS, 350",,-3.720988,-38.464413,,,0,,,
1271,,"AVENIDA CESAR CALS, 350",,-3.72119,-38.464319,,,0,,,
1272,,"AVENIDA CESAR CALS, 130",,-3.7193,-38.465189,,,0,,,
1273,,"AVENIDA ZEZE DIOGO, 1427",,-3.719292,-38.463639,,,0,,,
1275,,"RUA BRISA DO MAR, 1121",,-3.726934,-38.468843,,,0,,,
1276,,"RUA AIRTON SENNA, 936",,-3.726948,-38.469809,,,0,,,
1278,,"AVENIDA , 440",,-3.724829,-38.465685,,,0,,,
1279,,"RUA OLIVEIRA FILHO, 890",,-3.726229,-38.464279,,,0,,,
128,,"AVENIDA MOZART P.LUCENA, 1680",,-3.717146,-38.595375,,,0,,,
1281,,"RUA VISCONDE CAIRU, 330",,-3.726188,-38.463364,,,0,,,
1283,,"RUA CESAR CALS, 975",,-3.726894,-38.461362,,,0,,,
1284,,"AVENIDA CESAR CALS, 1030",,-3.726806,-38.46141,,,0,,,
1285,,"AVENIDA CESAR CALS, 876",,-3.725206,-38.462289,,,0,,,
1286,,"AVENIDA CESAR CALS, 876",,-3.725136,-38.462328,,,0,,,
1287,,"AVENIDA CESAR CALS, 510",,-3.723312,-38.463288,,,0,,,
1288,,"AVENIDA CESAR CALS, 560",,-3.723267,-38.463311,,,0,,,
1289,,"RUA MIGUEL CALMON, 09",,-3.727312,-38.463143,,,0,,,
129,,"RUA CIDADE PALHANO, 730",,-3.717388,-38.595112,,,0,,,
1292,,"AVENIDA J CJ CEARA, 623",,-3.762772,-38.614082,,,0,,,
1296,,"AVENIDA C CJ CEARA, 73",,-3.758979,-38.608058,,,0,,,
1297,,"AVENIDA C CJ CEARA, 73",,-3.758907,-38.608023,,,0,,,
13,,"AVENIDA CEL CARVALHO, 250",,-3.704985,-38.591232,,,0,,,
130,,"RUA CIDADE PALHANO, 601",,-3.717651,-38.594217,,,0,,,
1301,,"RUA TAILANDIA, 531",,-3.755365,-38.604746,,,0,,,
1302,,"AVENIDA E CJ CEARA, 340",,-3.759027,-38.606687,,,0,,,
1303,,"AVENIDA E CJ CEARA, 280",,-3.759114,-38.606471,,,0,,,
1304,,"RUA PERILIO TEIXEIRA, 1056",,-3.756208,-38.601244,,,0,,,
1306,,"RUA JOSE MENDONCA, 896",,-3.755412,-38.60187,,,0,,,
1307,,"RUA JOSE MENDONCA, 531",,-3.757768,-38.602304,,,0,,,
1309,,"RUA PERILIO TEIXEIRA, 800",,-3.757706,-38.60154,,,0,,,
131,,"AVENIDA MOZART P.LUCENA, 1560",,-3.716537,-38.595202,,,0,,,
1312,,"AVENIDA C CJ CEARA, 475",,-3.762913,-38.609643,,,0,,,
1313,,"AVENIDA C CJ CEARA, 686",,-3.763027,-38.609688,,,0,,,
1314,,"AVENIDA C CJ CEARA, 337",,-3.761626,-38.609136,,,0,,,
1315,,"AVENIDA C CJ CEARA, 337A",,-3.76155,-38.609107,,,0,,,
1318,,"AVENIDA E CJ CEARA, 167",,-3.759524,-38.605414,,,0,,,
1319,,"AVENIDA E/CJ CEARÁ, 172",,-3.759556,-38.605331,,,0,,,
132,,"AVENIDA AMBIENTALISTAARY THIERS, 131",,-3.716445,-38.596358,,,0,,,
1320,,"RUA 30 DE MAIO    (D73), 552",,-3.763013,-38.600652,,,0,,,
1322,,"AVENIDA D CJ CEARA, 958",,-3.760386,-38.603574,,,0,,,
1323,,"AVENIDA D CJ CEARA, 965",,-3.760296,-38.603607,,,0,,,
1324,,"RUA JOSE MENDONCA, 188",,-3.760879,-38.60289,,,0,,,
1326,,"AVENIDA J CJ CEARA, 917",,-3.766081,-38.615486,,,0,,,
1328,,"AVENIDA J CJ CEARA, 1035",,-3.767204,-38.61599,,,0,,,
1329,,"AVENIDA MIN ALBUQUERQUE LIMA, 180",,-3.764951,-38.612935,,,0,,,
133,,"AVENIDA MOZART P.LUCENA, 1357",,-3.714771,-38.594688,,,0,,,
1330,,"AVENIDA MIN ALBUQUERQUE LIMA, 184",,-3.764364,-38.613567,,,0,,,
1332,,"AVENIDA J CJ CEARA, 653",,-3.764256,-38.614741,,,0,,,
1333,,"AVENIDA J CJ CEARA, 2892",,-3.772361,-38.619003,,,0,,,
1334,,"AVENIDA J CJ CEARA, 2892",,-3.772026,-38.618829,,,0,,,
1335,,"AVENIDA J CJ CEARA, 2250",,-3.769359,-38.617182,,,0,,,
1336,,"AVENIDA J CJ CEARA, 2240",,-3.769481,-38.61727,,,0,,,
1337,,"AVENIDA C CJ CEARA, 1625",,-3.77225,-38.615105,,,0,,,
1339,,"AVENIDA J CJ CEARA, 2052",,-3.770863,-38.618228,,,0,,,
134,,"RUA RAIMUNDO GOMES, 198",,-3.714283,-38.5903,,,0,,,
1340,,"AVENIDA J CJ CEARA, 2580",,-3.770835,-38.618212,,,0,,,
1341,,"AVENIDA C CJ CEARA, 816",,-3.77156,-38.614471,,,0,,,
1344,,"AVENIDA C CJ CEARA, 1235",,-3.769231,-38.613511,,,0,,,
1345,,"AVENIDA C CJ CEARA, 1215",,-3.769214,-38.613496,,,0,,,
1348,,"AVENIDA C CJ CEARA, 635",,-3.764566,-38.6103,,,0,,,
1349,,"AVENIDA C CJ CEARA, 478",,-3.764416,-38.610239,,,0,,,
135,,"RUA DOR AMADEU SA, 353",,-3.718174,-38.592456,,,0,,,
1350,,"AVENIDA C CJ CEARA, SN",,-3.765928,-38.610844,,,0,,,
1351,,"AVENIDA C CJ CEARA, 805",,-3.7661,-38.610912,,,0,,,
1352,,"AVENIDA MIN ALBUQUERQUE LIMA, 178",,-3.767274,-38.609766,,,0,,,
1353,,"AVENIDA MIN ALBUQUERQUE LIMA, 170",,-3.767753,-38.608945,,,0,,,
1354,,"AVENIDA MIN ALBUQUERQUE LIMA, 285",,-3.767976,-38.608579,,,0,,,
1355,,"AVENIDA ALANIS MARIA LAURINDO OLIVEIRA, 760",,-3.768334,-38.607247,,,0,,,
1356,,"AVENIDA B CJ CEARA, 550",,-3.766652,-38.606178,,,0,,,
1357,,"AVENIDA ALANIS MARIA LAURINDO DE OLIVEIRA, 510",,-3.766256,-38.605929,,,0,,,
1358,,"AVENIDA B CJ CEARA, 370",,-3.764878,-38.605055,,,0,,,
136,,"RUA DOR AMADEU SA, 349",,-3.718418,-38.591646,,,0,,,
1360,,"AVENIDA A CJ CEARA, 613",,-3.767085,-38.601514,,,0,,,
1361,,"AVENIDA A CJ CEARA, 668",,-3.767474,-38.602354,,,0,,,
1362,,"AVENIDA D CJ CEARA, 1429",,-3.76446,-38.602018,,,0,,,
1363,,"AVENIDA L CJ CEARA, SN",,-3.770619,-38.606688,,,0,,,
1364,,"AVENIDA MIN ALBUQUERQUE LIMA, 788",,-3.770136,-38.605991,,,0,,,
1365,,"AVENIDA 151 CJ CEARA, 151",,-3.769659,-38.606579,,,0,,,
1366,,"AVENIDA MIN ALBUQUERQUE LIMA, 804",,-3.770196,-38.605887,,,0,,,
1367,,"AVENIDA A CJ CEARA, 1214",,-3.771963,-38.60505,,,0,,,
1368,,"AVENIDA 727 CJ CEARA, 1211",,-3.771565,-38.604942,,,0,,,
1369,,"AVENIDA A CJ CEARA, 1028",,-3.770201,-38.604566,,,0,,,
1370,,"AVENIDA A CJ CEARA, 1039",,-3.769309,-38.604314,,,0,,,
1371,,"AVENIDA A CJ CEARA, 884",,-3.768121,-38.603587,,,0,,,
1372,,"AVENIDA ALANIS MARIA LAURINDO OLIVEIRA, 760",,-3.768512,-38.607359,,,0,,,
1373,,"AVENIDA MIN ALBUQUERQUE LIMA, 1058",,-3.770887,-38.603607,,,0,,,
1374,,"AVENIDA MIN ALBUQUERQUE LIMA, 1113",,-3.770992,-38.60272,,,0,,,
1375,,"AVENIDA MIN ALBUQUERQUE LIMA, 1412",,-3.770979,-38.602349,,,0,,,
1376,,"AVENIDA MIN ALBUQUERQUE LIMA, 1225",,-3.770867,-38.601647,,,0,,,
1379,,"AVENIDA I CJ CEARA, 335",,-3.766568,-38.596999,,,0,,,
138,,"AVENIDA CEL CARVALHO, 1038",,-3.711183,-38.589574,,,0,,,
1380,,"AVENIDA I CJ CEARA, 337",,-3.7665,-38.597036,,,0,,,
1381,,"AVENIDA I CJ CEARA, 211",,-3.765902,-38.59865,,,0,,,
1382,,"AVENIDA I CJ CEARA, 237",,-3.76588,-38.59856,,,0,,,
1383,,"AVENIDA I CJ CEARA, 220",,-3.766667,-38.600587,,,0,,,
1384,,"AVENIDA AUDISIO PINHEIRO, 1883",,-3.766873,-38.593116,,,0,,,
1385,,"AVENIDA I CJ CEARA, 1126",,-3.772362,-38.597947,,,0,,,
1386,,"AVENIDA I CJ CEARA, 915",,-3.77244,-38.597962,,,0,,,
1387,,"AVENIDA I CJ CEARA, 702",,-3.770401,-38.597571,,,0,,,
1388,,"AVENIDA I CJ CEARA, 705",,-3.77056,-38.597599,,,0,,,
1389,,"AVENIDA MIN ALBUQUERQUE LIMA, 1730",,-3.770188,-38.598419,,,0,,,
139,,"AVENIDA CEL CARVALHO, 1033",,-3.711356,-38.589429,,,0,,,
1391,,"AVENIDA MIN ALBUQUERQUE LIMA, 1431",,-3.770544,-38.600153,,,0,,,
1392,,"AVENIDA MIN ALBUQUERQUE LIMA, 1412",,-3.770535,-38.600111,,,0,,,
1393,,"AVENIDA L CJ CEARÁ, 135",,-3.774932,-38.607703,,,0,,,
1395,,"AVENIDA G CJ CEARA, 615",,-3.774091,-38.610353,,,0,,,
1396,,"AVENIDA H CJ CEARA, 1285",,-3.775687,-38.609249,,,0,,,
1397,,"AVENIDA H CJ CEARA, 1280",,-3.775702,-38.609372,,,0,,,
1398,,"AVENIDA H CJ CEARA, 901",,-3.775109,-38.605577,,,0,,,
1399,,"AVENIDA H CJ CEARA, 901",,-3.775104,-38.605531,,,0,,,
14,,"AVENIDA FRANCISCO SA, 7998",,-3.70349,-38.591227,,,0,,,
1400,,"AVENIDA A CJ CEARA, 1420",,-3.774559,-38.605764,,,0,,,
1401,,"AVENIDA 741 CJ CEARA, 1420",,-3.77409,-38.605633,,,0,,,
1402,,"AVENIDA I CJ CEARA, 901",,-3.77495,-38.604221,,,0,,,
1403,,"RUA JOSE TORRES, 1576",,-3.776091,-38.606192,,,0,,,
1404,,"AVENIDA I CJ CEARA, 2736",,-3.774944,-38.604164,,,0,,,
1407,,"AVENIDA I CJ CEARA, 1573",,-3.773573,-38.600734,,,0,,,
1408,,"RUA DUAS NACOES, 570",,-3.77728,-38.602141,,,0,,,
1409,,"RUA TEODORO DE CASTRO, 1883",,-3.779101,-38.607365,,,0,,,
141,,"RUA TULIPA, 375",,-3.713819,-38.579301,,,0,,,
1410,,"RUA TEODORO DE CASTRO, 1840",,-3.779148,-38.607206,,,0,,,
1411,,"RUA TEODORO DE CASTRO, 1612",,-3.779748,-38.605069,,,0,,,
1412,,"RUA TEODORO DE CASTRO, 1609",,-3.779719,-38.60519,,,0,,,
1413,,"RUA JOSE TORRES, 824",,-3.778179,-38.606772,,,0,,,
1414,,"RUA JOSE TORRES, 1048",,-3.780145,-38.607319,,,0,,,
1415,,"RUA EMILIO DE MENESES, 2276",,-3.777848,-38.601275,,,0,,,
1419,,"RUA TEODORO DE CASTRO, 1415",,-3.780086,-38.603849,,,0,,,
142,,"RUA TULIPA, 420",,-3.714091,-38.579404,,,0,,,
1420,,"RUA TEODORO DE CASTRO, 1423",,-3.780069,-38.603911,,,0,,,
1421,,"RUA ANTONIO NERY, 495",,-3.777069,-38.599907,,,0,,,
1422,,"AVENIDA I CJ CEARA, 1359",,-3.773167,-38.599418,,,0,,,
1423,,"AVENIDA I CJ CEARA, 1344",,-3.773162,-38.599447,,,0,,,
1424,,"RUA VITAL BRASIL, 1948",,-3.77796,-38.598189,,,0,,,
1425,,"RUA EMILIO DE MENESES, 1947",,-3.778579,-38.598675,,,0,,,
1426,,"RUA VITAL BRASIL, 1430",,-3.779106,-38.594131,,,0,,,
1428,,"RUA EMILIO DE MENESES, 1551",,-3.779391,-38.595764,,,0,,,
1429,,"RUA EMILIO DE MENESES, 1372",,-3.780034,-38.593507,,,0,,,
1430,,"RUA VITAL BRASIL, 1097",,-3.779916,-38.591249,,,0,,,
1431,,"RUA EMILIO DE MENESES, 957",,-3.781026,-38.589993,,,0,,,
1433,,"RUA BARRINHA, 2956",,-3.729325,-38.603444,,,0,,,
1434,,"RUA STA MARIA GORETE, 2950",,-3.729223,-38.603414,,,0,,,
1435,,"RUA DONA LÚCIA PINHEIRO, 2723",,-3.730506,-38.603286,,,0,,,
1436,,"RUA DONA LÚCIA PINHEIRO, 2726",,-3.73053,-38.603201,,,0,,,
1437,,"RUA DONA LÚCIA PINHEIRO, 2556",,-3.730972,-38.601616,,,0,,,
144,,"AVENIDA FRANCISCO SA, 6200",,-3.709885,-38.579284,,,0,,,
1440,,"RUA DO TRABALHADOR, 2409 A",,-3.731589,-38.599445,,,0,,,
1441,,"RUA XXV CIDADE OESTE, 2262",,-3.731764,-38.598758,,,0,,,
1442,,"RUA DON LÚCIA PINHEIRO, 92",,-3.732002,-38.597893,,,0,,,
1443,,"RUA XIX CIDADE OESTE, 258",,-3.731258,-38.597792,,,0,,,
1444,,"RUA XXVII CIDADE OESTE, 344",,-3.7301,-38.597672,,,0,,,
1445,,"RUA XXVII CIDADE OESTE, 263",,-3.729765,-38.597578,,,0,,,
1446,,"RUA XXVII CIDADE OESTE, 160",,-3.729007,-38.597393,,,0,,,
1447,,"RUA XV CIDADE OESTE, 230",,-3.728034,-38.598265,,,0,,,
1449,,"RUA GAL ALIPIO DOS SANTOS, 1230",,-3.732244,-38.593749,,,0,,,
145,,"RUA JANDIRA, 1136",,-3.717234,-38.587063,,,0,,,
1450,,"RUA XX CIDADE OESTE, 301",,-3.731713,-38.595662,,,0,,,
1451,,"RUA XIX CIDADE OESTE, 30",,-3.731683,-38.596325,,,0,,,
1452,,"AVENIDA MOZART P.LUCENA, 3256",,-3.733116,-38.599845,,,0,,,
1453,,"RUA DOR PIO SARAIVA, 31",,-3.734313,-38.599986,,,0,,,
1454,,"RUA DOR PIO SARAIVA, 62",,-3.734398,-38.599978,,,0,,,
1455,,"RUA DOR PIO SARAIVA, 192",,-3.735972,-38.599767,,,0,,,
1456,,"RUA PDE PERDIGAO SAMPAIO, 05",,-3.732612,-38.596769,,,0,,,
1457,,"RUA PDE PERDIGAO SAMPAIO, 111",,-3.734498,-38.595901,,,0,,,
1458,,"RUA PDE PERDIGAO SAMPAIO, 447",,-3.735707,-38.595382,,,0,,,
1459,,"RUA XXIX CIDADE OESTE, 378",,-3.732398,-38.594762,,,0,,,
146,,"RUA JANDIRA, 1013",,-3.715745,-38.586918,,,0,,,
1460,,"RUA DEP MATOSO FILHO, 790",,-3.732943,-38.591573,,,0,,,
1461,,"RUA DEP MATOSO FILHO, 699",,-3.73257,-38.590734,,,0,,,
1462,,"RUA DEP MATOSO FILHO, 650",,-3.732429,-38.590409,,,0,,,
1463,,"RUA EMILIA GONCALVES, 1244",,-3.733231,-38.59265,,,0,,,
1464,,"RUA SGT HERMINIO, 185",,-3.734902,-38.591391,,,0,,,
1465,,"RUA SAO DOMINGOS, 448",,-3.735368,-38.591748,,,0,,,
1466,,"RUA SAO DOMINGOS, 437",,-3.735461,-38.591694,,,0,,,
1467,,"RUA SAO DOMINGOS, 313",,-3.736398,-38.591129,,,0,,,
1468,,"RUA SÃO DOMINGOS, 316",,-3.736634,-38.590985,,,0,,,
1469,,"RUA SGT HERMINIO, 73",,-3.734486,-38.590614,,,0,,,
147,,"AVENIDA CEL CARVALHO, 1309",,-3.714255,-38.588791,,,0,,,
1470,,"AVENIDA DA INDEPENDENCIA, 781",,-3.728056,-38.587031,,,0,,,
1472,,"RUA DEP MATOSO FILHO, 303",,-3.73123,-38.587689,,,0,,,
1473,,"AVENIDA CEL CARVALHO, 2882",,-3.728219,-38.58514,,,0,,,
1474,,"AVENIDA CEL CARVALHO, 2889",,-3.728366,-38.584979,,,0,,,
1475,,"RUA DEP MATOSO FILHO, 93",,-3.730501,-38.586092,,,0,,,
1476,,"RUA DEP MATOSO FILHO, 154",,-3.730516,-38.586125,,,0,,,
1477,,"AVENIDA CEL CARVALHO, 342",,-3.730876,-38.584714,,,0,,,
1478,,"AVENIDA CEL CARVALHO, 342",,-3.731094,-38.584583,,,0,,,
148,,"AVENIDA CEL CARVALHO, 1297",,-3.714249,-38.588691,,,0,,,
1480,,"RUA PRC NASSAU, 251",,-3.728704,-38.582573,,,0,,,
1481,,"AVENIDA SGT HERMINIO, 4600",,-3.731808,-38.57998,,,0,,,
1482,,"RUA BANVAR BEZERRA, 36",,-3.730152,-38.580641,,,0,,,
1483,,"RUA BANVAR BEZERRA, 40",,-3.730681,-38.580579,,,0,,,
1484,,"AVENIDA FRE CIRILO, SN",,-3.819491,-38.496408,,,0,,,
1485,,"AVENIDA FRE CIRILO, 3930",,-3.819694,-38.496421,,,0,,,
1486,,"AVENIDA FRE CIRILO, 4027",,-3.821543,-38.495501,,,0,,,
1488,,"AVENIDA FRE CIRILO, 4434",,-3.825178,-38.494014,,,0,,,
1489,,"AVENIDA FRE CIRILO, 4763",,-3.825202,-38.493898,,,0,,,
149,,"AVENIDA CEL CARVALHO, 1751",,-3.717818,-38.587799,,,0,,,
1490,,"AVENIDA SGT HERMINIO, 5498",,-3.733997,-38.588268,,,0,,,
1492,,"RUA CAP BRASIL, 219",,-3.736066,-38.586362,,,0,,,
1493,,"RUA CEL CARVALHO, 3572",,-3.734926,-38.584248,,,0,,,
1494,,"RUA CEL CARVALHO, 3581",,-3.73488,-38.584143,,,0,,,
1495,,"AVENIDA SGT HERMINIO, 4863",,-3.733344,-38.583468,,,0,,,
1496,,"AVENIDA SGT HERMINIO, 4931",,-3.733476,-38.583672,,,0,,,
1497,,"RUA BANVAR BEZERRA, 278",,-3.732384,-38.580374,,,0,,,
1498,,"RUA BANVAR BEZERRA, 278",,-3.732468,-38.580367,,,0,,,
1499,,"RUA GAL GOIS MONTEIRO, 525",,-3.733896,-38.579836,,,0,,,
15,,"RUA 2 CJ POLAR, 50",,-3.70769,-38.593439,,,0,,,
150,,"AVENIDA CEL CARVALHO, 1678",,-3.717247,-38.588055,,,0,,,
1500,,"RUA GAL GOIS MONTEIRO, 525",,-3.733882,-38.579734,,,0,,,
1501,,"AVENIDA SGT HERMINIO, 4020",,-3.730649,-38.577044,,,0,,,
1502,,"AVENIDA SGT HERMINIO, 4289",,-3.731185,-38.578413,,,0,,,
1503,,"AVENIDA SGT HERMINIO, 3787",,-3.729908,-38.575134,,,0,,,
1505,,"AVENIDA SGT HERMÍNIO, 3673",,-3.729256,-38.573498,,,0,,,
1506,,"AVENIDA SGT HERMINIO, 57",,-3.728579,-38.571819,,,0,,,
1507,,"AVENIDA SGT HERMINIO, 11",,-3.728096,-38.57034,,,0,,,
1509,,"AVENIDA GOV PARSIFAL BARROSO, 300",,-3.730471,-38.569101,,,0,,,
151,,"RUA COS LAFAYETE, 564",,-3.717963,-38.582994,,,0,,,
1510,,"RUA GAL GOIS MONTEIRO, 285",,-3.73357,-38.577701,,,0,,,
1511,,"RUA GAL GOIS MONTEIRO, 508",,-3.733564,-38.577657,,,0,,,
1514,,"RUA MARIA MIRIAM FERREIRA DE SOUZA, SN",,-3.733459,-38.568905,,,0,,,
1515,,"AVENIDA GOV PARSIFAL BARROSO, SN",,-3.73395,-38.569001,,,0,,,
1516,,"RUA OLAVO BILAC, 1300",,-3.732107,-38.564586,,,0,,,
1517,,"RUA OLAVO BILAC, 1241",,-3.731779,-38.564612,,,0,,,
1518,,"RUA OLAVO BILAC, 1076",,-3.730173,-38.564737,,,0,,,
1519,,"RUA OLAVO BILAC, 809",,-3.727929,-38.564993,,,0,,,
152,,"RUA ALBERTO FERREIRA, 80",,-3.718242,-38.582861,,,0,,,
1522,,"RUA MOZART GONDIM, 1340",,-3.731136,-38.559882,,,0,,,
1526,,"RUA OLAVO BILAC, S/N",,-3.735015,-38.564285,,,0,,,
1527,,"RUA OLAVO BILAC, 1300",,-3.73483,-38.564327,,,0,,,
153,,"RUA COS LAFAYETE, 410",,-3.717938,-38.583246,,,0,,,
154,,"RUA COS LAFAYETE, 579",,-3.717745,-38.585326,,,0,,,
1543,,"RUA ANDRE REBOUCAS, 60",,-3.774236,-38.588913,,,0,,,
1544,,"RUA CACILDA BECKER, 261",,-3.7734,-38.588136,,,0,,,
1545,,"RUA VERBENA, 288",,-3.77726,-38.587893,,,0,,,
1546,,"RUA JULIO BRAGA, 1740",,-3.773579,-38.585959,,,0,,,
1547,,"AVENIDA LINEU MACHADO, 1934",,-3.776099,-38.58225,,,0,,,
1548,,"AVENIDA LINEU MACHADO, 1936",,-3.776049,-38.582224,,,0,,,
1549,,"AVENIDA LINEU MACHADO, 1772",,-3.774897,-38.58157,,,0,,,
155,,"RUA COS LAFAYETE, 706",,-3.717682,-38.586023,,,0,,,
1550,,"AVENIDA LINEU MACHADO, 1785",,-3.774842,-38.581542,,,0,,,
1551,,"AVENIDA LINEU MACHADO, 1634",,-3.773662,-38.580925,,,0,,,
1552,,"RUA MELO DE OLIVEIRA, 1088",,-3.774969,-38.579472,,,0,,,
1553,,"RUA VERBENA, 60",,-3.78026,-38.588539,,,0,,,
1556,,"RUA CARLOS CHAGAS, 643",,-3.779905,-38.586055,,,0,,,
1557,,"RUA CARLOS CHAGAS, 611",,-3.779996,-38.585739,,,0,,,
1558,,"RUA CARLOS CHAGAS, 409",,-3.780518,-38.583904,,,0,,,
1559,,"RUA CARLOS CHAGAS, 400",,-3.780526,-38.583874,,,0,,,
1560,,"RUA ARAÇA, 183",,-3.779571,-38.583274,,,0,,,
1561,,"RUA ARAÇA, 164",,-3.779455,-38.583246,,,0,,,
1562,,"AVENIDA LINEU MACHADO, 2076",,-3.777513,-38.58299,,,0,,,
1563,,"AVENIDA AUGUSTO DOS ANJOS, 1786",,-3.781577,-38.580391,,,0,,,
1564,,"AVENIDA AUGUSTO DOS ANJOS, 1738",,-3.781428,-38.580259,,,0,,,
1565,,"RUA PDE PERDIGAO SAMPAIO, 200",,-3.735845,-38.595326,,,0,,,
1566,,"AVENIDA VICENTE DE CASTRO, 6920",,-3.708966,-38.471397,,,0,,,
1567,,"AVENIDA VICENTE DE CASTRO, 6920",,-3.70894,-38.471207,,,0,,,
1568,,"AVENIDA ZEZE DIOGO, 159",,-3.709145,-38.468588,,,0,,,
1569,,"AVENIDA VICENTE DE CASTRO, S/N",,-3.713389,-38.473136,,,0,,,
1570,,"AVENIDA VICENTE DE CASTRO, S/N",,-3.712234,-38.472676,,,0,,,
1571,,"AVENIDA VICENTE DE CASTRO, 6074",,-3.711457,-38.472195,,,0,,,
1572,,"AVENIDA JOSE SABOIA, 115",,-3.713961,-38.472958,,,0,,,
1573,,"AVENIDA VICENTE DE CASTRO, 5151",,-3.71904,-38.475226,,,0,,,
1574,,"AVENIDA VICENTE DE CASTRO, 6001",,-3.71625,-38.475028,,,0,,,
1575,,"AVENIDA VICENTE DE CASTRO, 6001",,-3.715963,-38.474639,,,0,,,
1576,,"AVENIDA VICENTE DE CASTRO, 6001",,-3.714822,-38.474031,,,0,,,
1577,,"AVENIDA VICENTE DE CASTRO, 6001",,-3.714579,-38.473664,,,0,,,
1579,,"AVENIDA JOSE SABOIA, 113",,-3.71446,-38.471365,,,0,,,
1580,,"AVENIDA ZEZE DIOGO, 487",,-3.711288,-38.467358,,,0,,,
1581,,"AVENIDA ZEZE DIOGO, 493",,-3.712908,-38.466587,,,0,,,
1582,,"AVENIDA ZEZE DIOGO, 669",,-3.712582,-38.46674,,,0,,,
1583,,"AVENIDA JOSE SABOIA, 521",,-3.717357,-38.467105,,,0,,,
1584,,"AVENIDA JOSE SABOIA, 780",,-3.717426,-38.467006,,,0,,,
1585,,"AVENIDA ZEZE DIOGO, 1195",,-3.717826,-38.464352,,,0,,,
1586,,"AVENIDA ZEZE DIOGO, 1087",,-3.716723,-38.464846,,,0,,,
1587,,"AVENIDA ZEZE DIOGO, 659",,-3.714903,-38.465668,,,0,,,
1588,,"AVENIDA ZEZE DIOGO, 655",,-3.714802,-38.465715,,,0,,,
159,,"RUA TEODOMIRO DE CASTRO, 6715",,-3.715536,-38.580299,,,0,,,
1594,,"AVENIDA PDE IBIAPINA, 1446",,-3.727757,-38.540341,,,0,,,
1598,,"AVENIDA DUQ CAXIAS, 1327",,-3.729714,-38.536079,,,0,,,
1599,,"AVENIDA IMPERADOR, 1190",,-3.731303,-38.535702,,,0,,,
160,,"RUA RAIMUNDO FROTA, 6726",,-3.715352,-38.580814,,,0,,,
1600,,"RUA METON DE ALENCAR, 1520",,-3.731541,-38.537187,,,0,,,
1604,,"AVENIDA IMPERADOR, 1360",,-3.733315,-38.536303,,,0,,,
1605,,"AVENIDA IMPERADOR, 1433",,-3.733544,-38.536373,,,0,,,
1606,,"AVENIDA IMPERADOR, 1459",,-3.733841,-38.536465,,,0,,,
1607,,"AVENIDA IMPERADOR, 1479",,-3.73413,-38.536554,,,0,,,
1608,,"AVENIDA IMPERADOR, 1499",,-3.734477,-38.53666,,,0,,,
1609,,"RUA DOMINGOS OLIMPIO, S/N",,-3.735088,-38.536187,,,0,,,
161,,"RUA RAIMUNDO FROTA, 115",,-3.715172,-38.582146,,,0,,,
1610,,"AVENIDA IMPERADOR, 1738",,-3.736164,-38.537115,,,0,,,
1614,,"RUA PERDIGAO DE OLIVEIRA, 780",,-3.774895,-38.576157,,,0,,,
1615,,"RUA PERDIGAO DE OLIVEIRA, 651",,-3.774977,-38.57549,,,0,,,
1617,,"AVENIDA AUGUSTO DOS ANJOS, 1150",,-3.777127,-38.576497,,,0,,,
1618,,"AVENIDA AUGUSTO DOS ANJOS, 749",,-3.774524,-38.574157,,,0,,,
1619,,"AVENIDA AUGUSTO DOS ANJOS, 700",,-3.774629,-38.574251,,,0,,,
162,,"RUA TEODORO DE CASTRO, 6614",,-3.715777,-38.579648,,,0,,,
1622,,"AVENIDA GAL OSORIO DE PAIVA, 852",,-3.777667,-38.569707,,,0,,,
1623,,"RUA CÔNEGO DE CASTRO, 710",,-3.779162,-38.568099,,,0,,,
1624,,"RUA CÔNEGO DE CASTRO, SN",,-3.779589,-38.568477,,,0,,,
1625,,"RUA CÔNEGO DE CASTRO, 956",,-3.780504,-38.569285,,,0,,,
1627,,"RUA CON CASTRO, 956",,-3.781219,-38.569941,,,0,,,
1628,,"AVENIDA GAL OSORIO DE PAIVA, SN",,-3.778935,-38.571824,,,0,,,
1629,,"AVENIDA GAL OSORIO DE PAIVA, 1293",,-3.778921,-38.571692,,,0,,,
163,,"RUA TULIPA, 687",,-3.716289,-38.580224,,,0,,,
1630,,"AVENIDA GAL OSÓRIO DE PAIVA, 1293",,-3.779915,-38.573261,,,0,,,
1632,,"AVENIDA GAL OSORIO DE PAIVA, SN",,-3.780301,-38.574004,,,0,,,
1633,,"AVENIDA GAL OSORIO DE PAIVA, 1591",,-3.781258,-38.575302,,,0,,,
1635,,"AVENIDA AUGUSTO DOS ANJOS, 1417",,-3.778928,-38.578065,,,0,,,
1636,,"AVENIDA AUGUSTO DOS ANJOS, 1314",,-3.778575,-38.57776,,,0,,,
1637,,"AVENIDA GAL OSORIO DE PAIVA, SN",,-3.775196,-38.565934,,,0,,,
1638,,"RUA EDUARDO PERDIGAO, 118",,-3.775257,-38.565026,,,0,,,
1639,,"RUA CON CASTRO, 403",,-3.777326,-38.566422,,,0,,,
164,,"RUA TULIPA, 696",,-3.716505,-38.580306,,,0,,,
1641,,"AVENIDA GAL OSORIO DE PAIVA, 600",,-3.776414,-38.567843,,,0,,,
1642,,"AVENIDA GAL OSORIO DE PAIVA, 426",,-3.776059,-38.567162,,,0,,,
1643,,"AVENIDA OSORIO DE PAIVA, 110",,-3.77318,-38.563736,,,0,,,
1644,,"AVENIDA CARLOS AMORA, 34",,-3.774241,-38.564402,,,0,,,
1645,,"RUA CON CASTRO, 77",,-3.77497,-38.564195,,,0,,,
1646,,"RUA 7 DE SETEMBRO, SN",,-3.773387,-38.562634,,,0,,,
1647,,"AVENIDA GODOFREDO MACIEL, SN",,-3.777888,-38.56422,,,0,,,
1649,,"RUA GERMANO FRANCK, 375",,-3.775657,-38.560381,,,0,,,
165,,"RUA TULIPA, 847",,-3.717812,-38.580795,,,0,,,
1650,,"RUA GERMANO FRANCK, 103A",,-3.773941,-38.558113,,,0,,,
1652,,"AVENIDA DEDÉ BRASIL, 824",,-3.78085,-38.558296,,,0,,,
1654,,"AVENIDA DEDE BRASIL, 565",,-3.779819,-38.559999,,,0,,,
1655,,"AVENIDA SILA MUNGUBA, 450",,-3.778778,-38.561122,,,0,,,
1656,,"RUA CASIMIRO DE ABREU, 101",,-3.780651,-38.561662,,,0,,,
1657,,"AVENIDA SILAS MUNGUBA, SN",,-3.777758,-38.561646,,,0,,,
1658,,"AVENIDA GODOFREDO MACIEL, 522",,-3.780839,-38.565172,,,0,,,
1659,,"AVENIDA GODOFREDO MACIEL, 603",,-3.781936,-38.565341,,,0,,,
166,,"RUA COS LAFAYETE, 15",,-3.718347,-38.579019,,,0,,,
1663,,"RUA JULIO VERNE, 208",,-3.775904,-38.551516,,,0,,,
1666,,"AVENIDA PEDRO ALVARES CABRAL, 741",,-3.777552,-38.548093,,,0,,,
1668,,"AVENIDA CARLOS JEREISSATI, 719",,-3.77751,-38.54791,,,0,,,
167,,"RUA COS LAFAYETE, 276",,-3.718199,-38.58057,,,0,,,
1671,,"RUA CON LIMA SUCUPIRA, S/N",,-3.779159,-38.54776,,,0,,,
1673,,"RUA CON LIMA SUCUPIRA, 1567",,-3.778721,-38.549099,,,0,,,
1677,,"RUA GOV JOAO CARLOS, 330",,-3.778391,-38.551693,,,0,,,
1678,,"RUA DOR JUSTA ARAUJO   (D45), 485",,-3.78,-38.551575,,,0,,,
1679,,"AVENIDA C CJ CEARA, 1075",,-3.768174,-38.612594,,,0,,,
1680,,"AVENIDA C CJ CEARA, 1035",,-3.7678,-38.61227,,,0,,,
1681,,"AVENIDA C CJ CEARA, 925",,-3.767184,-38.611737,,,0,,,
1691,,"AVENIDA TRISTAO GONCALVES, 1153",,-3.731735,-38.5346,,,0,,,
1692,,"AVENIDA IMPERADOR, 462",,-3.727993,-38.534757,,,0,,,
1693,,"AVENIDA DUQ CAXIAS, 808",,-3.731142,-38.531694,,,0,,,
1697,,"RUA GAL SAMPAIO, 1235",,-3.729604,-38.531583,,,0,,,
170,,"RUA VERBENA, 713",,-3.783218,-38.589355,,,0,,,
1708,,"RUA PEDRO PRIMEIRO, 373",,-3.731437,-38.527972,,,0,,,
171,,"RUA ANSELMO NOGUEIRA, 430",,-3.782239,-38.587502,,,0,,,
1713,,"RUA METON DE ALENCAR, 1713",,-3.732794,-38.533311,,,0,,,
1715,,"AVENIDA TRISTAO GONCALVES, 1441",,-3.734475,-38.535412,,,0,,,
1716,,"RUA DOMINGOS OLIMPIO, 1275",,-3.735376,-38.534588,,,0,,,
1717,,"AVENIDA DA UNIVERSIDADE, 2068",,-3.735906,-38.5345,,,0,,,
172,,"RUA EMILIO DE MENESES, 385",,-3.782373,-38.585227,,,0,,,
1722,,"RUA GAL SAMPAIO, 1731",,-3.733389,-38.532704,,,0,,,
1723,,"RUA SEN POMPEU, SN",,-3.733923,-38.531742,,,0,,,
1726,,"RUA ASSUNCAO, 670",,-3.736072,-38.529174,,,0,,,
1727,,"RUA ASSUNCAO, 473",,-3.733991,-38.528479,,,0,,,
1729,,"AVENIDA DUQ CAXIAS, 365",,-3.732443,-38.52765,,,0,,,
173,,"RUA VITAL BRASIL, 440",,-3.781917,-38.584257,,,0,,,
174,,"AVENIDA GAL OSORIO DE PAIVA, 2165",,-3.784967,-38.581413,,,0,,,
1740,,"RUA ANTONIO POMPEU, 120",,-3.736555,-38.525022,,,0,,,
1741,,"AVENIDA POCINHO, 55",,-3.728306,-38.522726,,,0,,,
1742,,"AVENIDA DOM MANUEL, 591",,-3.729813,-38.521528,,,0,,,
1743,,"AVENIDA DOM MANUEL, S/N",,-3.731674,-38.522229,,,0,,,
1744,,"AVENIDA DOM MANUEL, 811",,-3.731794,-38.522165,,,0,,,
1745,,"AVENIDA DOM MANUEL, 470",,-3.72782,-38.520986,,,0,,,
1746,,"RUA COSTA BARROS, 539",,-3.72797,-38.518986,,,0,,,
1747,,"RUA COSTA BARROS, 915",,-3.729033,-38.515598,,,0,,,
1749,,"RUA PEREIRA FILGUEIRAS, 933",,-3.727864,-38.514378,,,0,,,
1750,,"AVENIDA SANTOS DUMONT, 1028",,-3.730977,-38.514478,,,0,,,
1752,,"AVENIDA HERACLITO GRACA, 33",,-3.73354,-38.524224,,,0,,,
1754,,"AVENIDA DOM MANUEL, 1344",,-3.735664,-38.523549,,,0,,,
1755,,"AVENIDA DOM MANUEL, 1305",,-3.735496,-38.523388,,,0,,,
1756,,"AVENIDA VIS RIO BRANCO, 1636",,-3.735056,-38.524297,,,0,,,
1757,,"RUA ROCHA LIMA, 231",,-3.736533,-38.521805,,,0,,,
176,,"AVENIDA GAL OSORIO DE PAIVA, 1919",,-3.784002,-38.579657,,,0,,,
1760,,"RUA DNA LEOPOLDINA, 1165",,-3.7351,-38.520909,,,0,,,
1761,,"AVENIDA HERACLITO GRACA, 421",,-3.734783,-38.520288,,,0,,,
1765,,"AVENIDA HERACLITO GRACA, 1177",,-3.736556,-38.514848,,,0,,,
1766,,"RUA PEREIRA FILGUEIRAS, 1295",,-3.728872,-38.511343,,,0,,,
1767,,"RUA COSTA BARROS, 1391",,-3.730642,-38.510679,,,0,,,
1768,,"RUA COSTA BARROS, 1226",,-3.729942,-38.512808,,,0,,,
1769,,"AVENIDA SANTOS DUMONT, 1400",,-3.732063,-38.511142,,,0,,,
177,,"RUA GABRIEL FIUZA, 393",,-3.786824,-38.580163,,,0,,,
1770,,"RUA TEN BENEVOLO, 1446",,-3.72857,-38.5074,,,0,,,
1771,,"RUA TEN BENEVOLO, 1266",,-3.727667,-38.510149,,,0,,,
1772,,"RUA PEREIRA FILGUEIRAS, 1550 A",,-3.729604,-38.509075,,,0,,,
1776,,"RUA PEREIRA FILGUEIRAS, 1817",,-3.730318,-38.506889,,,0,,,
1777,,"RUA PEREIRA FILGUEIRAS, 2020",,-3.731056,-38.50461,,,0,,,
1778,,"AVENIDA BAR STUDART, 800",,-3.731387,-38.505613,,,0,,,
1779,,"AVENIDA BAR STUDART, 825",,-3.731778,-38.505639,,,0,,,
178,,"RUA GABRIEL FIUZA, 220",,-3.787517,-38.579432,,,0,,,
1780,,"AVENIDA SANTOS DUMONT, 1673",,-3.732771,-38.508982,,,0,,,
1781,,"AVENIDA SANTOS DUMONT, 1890",,-3.733379,-38.507134,,,0,,,
1782,,"RUA COSTA BARROS, 2201",,-3.732952,-38.503615,,,0,,,
1783,,"RUA COSTA BARROS, 2070",,-3.732445,-38.505171,,,0,,,
1785,,"AVENIDA BAR STUDART, 1071",,-3.733892,-38.506321,,,0,,,
1786,,"AVENIDA BAR STUDART, 1148",,-3.734971,-38.506752,,,0,,,
1787,,"RUA PEREIRA FILGUEIRAS, 2280",,-3.73169,-38.502594,,,0,,,
1788,,"RUA TEN BENEVOLO, 2165",,-3.730287,-38.502073,,,0,,,
179,,"AVENIDA CARDOSO DE BARROS, 2395",,-3.786522,-38.583557,,,0,,,
1790,,"AVENIDA DES MOREIRA, SN",,-3.729866,-38.496272,,,0,,,
1792,,"AVENIDA DES MOREIRA, 615",,-3.731719,-38.496881,,,0,,,
1793,,"AVENIDA DES MOREIRA, 115",,-3.727983,-38.495654,,,0,,,
1795,,"AVENIDA ANTONIO JUSTA, 3113",,-3.728028,-38.493314,,,0,,,
1796,,"AVENIDA ANTONIO JUSTA, 2980",,-3.728192,-38.492837,,,0,,,
1797,,"RUA ANA BILHAR, 770",,-3.73014,-38.493588,,,0,,,
1798,,"RUA ANA BILHAR, 491",,-3.729426,-38.495807,,,0,,,
18,,"AVENIDA CIRCULACAO, 564",,-3.705787,-38.590918,,,0,,,
180,,"AVENIDA GAL OSORIO DE PAIVA, 2373",,-3.786312,-38.583488,,,0,,,
1801,,"RUA OSVALDO CRUZ, 1170",,-3.73619,-38.500507,,,0,,,
1804,,"AVENIDA DOM LUIS, 230",,-3.732502,-38.499696,,,0,,,
1806,,"AVENIDA DESEMBARGADOR MOREIRA, 1020",,-3.734979,-38.497963,,,0,,,
1807,,"AVENIDA DESEMBARGADOR MOREIRA, 940",,-3.734001,-38.497747,,,0,,,
181,,"AVENIDA OSORIO DE PAIVA, 2834",,-3.788709,-38.586406,,,0,,,
1812,,"AVENIDA ANTONIO JUSTA, 3320",,-3.728673,-38.491325,,,0,,,
1813,,"AVENIDA ANTONIO JUSTA, 3301",,-3.728513,-38.491831,,,0,,,
1816,,"RUA FRE MANSUETO, 770",,-3.731408,-38.488848,,,0,,,
182,,"AVENIDA GAL OSORIO DE PAIVA, 1738",,-3.782364,-38.577204,,,0,,,
1822,,"RUA CANINDE    (D48), 797",,-3.728221,-38.482147,,,0,,,
1824,,"AVENIDA ALM HENRIQUE SABOIA, 2364",,-3.732066,-38.482718,,,0,,,
1825,,"AVENIDA ALM HENRIQUE SABOIA, 2364",,-3.732376,-38.482763,,,0,,,
1826,,"RUA MERUOCA, 80",,-3.730308,-38.48296,,,0,,,
1827,,"RUA MES JERONIMO    (D48), 233",,-3.729446,-38.481757,,,0,,,
1828,,"RUA MES JERONIMO    (D48), 233",,-3.72933,-38.481708,,,0,,,
183,,"AVENIDA GAL OSORIO DE PAIVA, 1781",,-3.782807,-38.577651,,,0,,,
1830,,"AVENIDA DOM LUIS, 1200",,-3.735624,-38.490029,,,0,,,
1838,,"AVENIDA JULIO ABREU, 315",,-3.735893,-38.487623,,,0,,,
1839,,"AVENIDA ENG SANTANA JUNIOR, 970",,-3.736718,-38.482669,,,0,,,
1842,,"RUA MANUEL JESUINO, 807",,-3.732748,-38.484953,,,0,,,
1845,,"AVENIDA ENG SANTANA JUNIOR, 303",,-3.732059,-38.479816,,,0,,,
1847,,"AVENIDA ALM HENRIQUE SABOIA, S/Nº",,-3.727141,-38.480385,,,0,,,
1848,,"AVENIDA ALM HENRIQUE SABOIA, S/Nº",,-3.727135,-38.480502,,,0,,,
1849,,"RUA OLIVEIRA VIANA, 585",,-3.731798,-38.475525,,,0,,,
185,,"RUA LINS DO REGO, 115",,-3.783435,-38.576433,,,0,,,
1850,,"RUA OLIVEIRA VIANA, 566",,-3.731784,-38.475576,,,0,,,
1851,,"RUA ENG PLACIDO C JUNIOR D56, 430",,-3.731164,-38.476822,,,0,,,
1852,,"RUA ENG PLACIDO C JUNIOR D56, 430",,-3.7312,-38.476785,,,0,,,
1854,,"RUA ENG PLACIDO C JUNIOR D56, 316",,-3.730353,-38.477616,,,0,,,
1855,,"AVENIDA AREIA BRANCA, 380",,-3.727684,-38.475613,,,0,,,
1856,,"RUA CRISTO REDENTOR, 80",,-3.728156,-38.475886,,,0,,,
1858,,"RUA VENEZA, 401A",,-3.728181,-38.472858,,,0,,,
1861,,"AVENIDA AREIA BRANCA, 50 A",,-3.728319,-38.473623,,,0,,,
1862,,"RUA JOSE C.G. NOGUEIRA, 142",,-3.731003,-38.47286,,,0,,,
1863,,"RUA JOSE C.G. NOGUEIRA, 280",,-3.730952,-38.472826,,,0,,,
1864,,"RUA JOSE C.G. NOGUEIRA, 147",,-3.732095,-38.473465,,,0,,,
1865,,"AVENIDA ENG SANTANA JUNIOR, 639",,-3.733658,-38.480862,,,0,,,
1866,,"AVENIDA ENG SANTANA JUNIOR, 663",,-3.733954,-38.480893,,,0,,,
1868,,"AVENIDA ENG ALBERTO SA, 175",,-3.733653,-38.478963,,,0,,,
1870,,"AVENIDA ENG ALBERTO SA, 480",,-3.734393,-38.476433,,,0,,,
1872,,"AVENIDA ENG ALBERTO SA, 1000",,-3.735132,-38.47385,,,0,,,
1873,,"AVENIDA ENG ALBERTO SA, 1280",,-3.735783,-38.47157,,,0,,,
1875,,"RUA PRO HERACLITO, 785",,-3.732946,-38.473958,,,0,,,
1876,,"RUA PRO HERACLITO, 744",,-3.732841,-38.474329,,,0,,,
1879,,"AVENIDA CESAR CALS, 1297",,-3.728992,-38.460222,,,0,,,
1882,,"RUA HERMINIA BONAVIDES, SN",,-3.731004,-38.462914,,,0,,,
1884,,"AVENIDA ENG ALBERTO SA, 891",,-3.734306,-38.469367,,,0,,,
1885,,"AVENIDA ENG ALBERTO SA, 911",,-3.734726,-38.469477,,,0,,,
1886,,"AVENIDA HERMINIA BONAVIDES, 555",,-3.732484,-38.466369,,,0,,,
1887,,"AVENIDA HERMINIA BONAVIDES, 555",,-3.732352,-38.465943,,,0,,,
1888,,"RUA RENATO BRAGA, 200",,-3.732343,-38.460746,,,0,,,
1889,,"RUA RENATO BRAGA, 203",,-3.732341,-38.460743,,,0,,,
189,,"RUA CON CASTRO, S/N",,-3.786789,-38.575067,,,0,,,
1890,,"RUA RENATO BRAGA, SN",,-3.732521,-38.462814,,,0,,,
1891,,"RUA RENATO BRAGA, 1701",,-3.732558,-38.462717,,,0,,,
1892,,"AVENIDA CESAR CALS, 1331",,-3.729628,-38.459876,,,0,,,
1893,,"RUA RENATO BRAGA, 190",,-3.731575,-38.459191,,,0,,,
1894,,"RUA RENATO BRAGA, 199",,-3.73164,-38.45932,,,0,,,
1895,,"AVENIDA DIOGUINHO, 1705",,-3.732085,-38.458529,,,0,,,
1896,,"AVENIDA DIOGUINHO, 1850",,-3.733068,-38.457993,,,0,,,
1898,,"RUA HIPOLITO PAMPLONA, 16 A",,-3.739517,-38.596965,,,0,,,
1899,,"AVENIDA MISTER HULL, 104",,-3.740309,-38.596684,,,0,,,
19,,"AVENIDA CEL CARVALHO, 599",,-3.708152,-38.590294,,,0,,,
190,,"RUA CON CASTRO, 1230",,-3.782896,-38.571483,,,0,,,
1900,,"AVENIDA MISTER HULL, 565",,-3.740043,-38.594915,,,0,,,
1901,,"RUA PDE PERDIGAO SAMPAIO, 330",,-3.739244,-38.594756,,,0,,,
1902,,"RUA ANARIO BRAGA, 844",,-3.73688,-38.593435,,,0,,,
1904,,"AVENIDA MIT HULL, 5557",,-3.74012,-38.594082,,,0,,,
1906,,"RUA ANARIO BRAGA, 709",,-3.7372,-38.592256,,,0,,,
1907,,"RUA MANUEL NUNES, 120",,-3.737248,-38.591463,,,0,,,
1908,,"AVENIDA MISTER HULL, 5168",,-3.739399,-38.590584,,,0,,,
1909,,"RUA MANUEL NUNES, 120",,-3.737108,-38.591144,,,0,,,
191,,"RUA NEREU RAMOS, S/N",,-3.786274,-38.569486,,,0,,,
1910,,"AVENIDA MIT HULL, 5151",,-3.739572,-38.590388,,,0,,,
1914,,"RUA CEL JOAQUIM FRANKLIN, 911",,-3.743535,-38.595183,,,0,,,
1915,,"RUA HIPOLITO PAMPLONA, 333",,-3.744114,-38.596253,,,0,,,
1918,,"RUA PDE PERDIGAO SAMPAIO, 689",,-3.742909,-38.594235,,,0,,,
1919,,"RUA HUGO VITOR, 319",,-3.742163,-38.591259,,,0,,,
1920,,"RUA HUGO VITOR, 463",,-3.743887,-38.591016,,,0,,,
1921,,"RUA TEN QUEIROZ, 497",,-3.745106,-38.590583,,,0,,,
1922,,"RUA JOAQUIM NOGUEIRA, 655",,-3.745159,-38.589701,,,0,,,
1923,,"RUA TEN QUEIROZ, 667",,-3.745329,-38.592164,,,0,,,
1926,,"AVENIDA OSCAR ARARIPE, 3158",,-3.785057,-38.618744,,,0,,,
193,,"RUA CON CASTRO, SN",,-3.788182,-38.576365,,,0,,,
1932,,"RUA FRANCISCO PAIVA, 848",,-3.789324,-38.613788,,,0,,,
1933,,"RUA BOM JESUS, 2297",,-3.790473,-38.6134,,,0,,,
1934,,"RUA BOM JESUS, 2584",,-3.789903,-38.615148,,,0,,,
1936,,"RUA BOM JESUS, 2822",,-3.788485,-38.619842,,,0,,,
1937,,"RUA BOM JESUS, 3091",,-3.788209,-38.620803,,,0,,,
1938,,"RUA JOSE TORRES, 1272",,-3.782171,-38.607877,,,0,,,
1939,,"RUA JOSE TORRES, 1161",,-3.782142,-38.607868,,,0,,,
194,,"RUA CON CASTRO, SN",,-3.787948,-38.576148,,,0,,,
1940,,"RUA CEL VIRGILIO N PAES, 319",,-3.78574,-38.607757,,,0,,,
1941,,"RUA CEL FABRICIANO, 1776",,-3.782814,-38.607621,,,0,,,
1942,,"RUA CEL FABRICIANO, 1651 A",,-3.783339,-38.60578,,,0,,,
1943,,"RUA CEL FABRICIANO, 1355",,-3.783782,-38.604193,,,0,,,
1944,,"RUA CEL FABRICIANO, 1201",,-3.784237,-38.60258,,,0,,,
1946,,"RUA ANTONIO NERY, 1271",,-3.783497,-38.601685,,,0,,,
1948,,"AVENIDA OSCAR ARARIPE, 1019",,-3.790809,-38.60052,,,0,,,
195,,"RUA CON CASTRO, 2147",,-3.789315,-38.577406,,,0,,,
1951,,"AVENIDA OSCAR ARARIPE, 1930",,-3.788341,-38.608194,,,0,,,
1952,,"RUA CEL VIRGILIO N PAES, 791",,-3.790629,-38.609345,,,0,,,
1955,,"AVENIDA OSCAR ARARIPE, 1560",,-3.789117,-38.605823,,,0,,,
1958,,"RUA JOSE ABILIO, 786",,-3.783836,-38.598694,,,0,,,
1959,,"RUA MARIA JULIA, 1305",,-3.784445,-38.597519,,,0,,,
196,,"RUA CON CASTRO, 2242",,-3.789657,-38.577721,,,0,,,
1961,,"RUA MARIA JULIA, 42",,-3.785942,-38.597925,,,0,,,
1962,,"AVENIDA PERIMETRAL, 1054",,-3.78528,-38.589942,,,0,,,
1965,,"RUA NEREIDE, 740",,-3.787934,-38.597624,,,0,,,
1966,,"RUA NEREIDE, 483",,-3.78856,-38.595606,,,0,,,
1967,,"RUA NEREIDE, 489",,-3.78862,-38.595414,,,0,,,
1968,,"RUA NEREIDE, 321",,-3.789547,-38.592312,,,0,,,
1970,,"RUA JOAO VINTE TRES, 18",,-3.790206,-38.592811,,,0,,,
1971,,"RUA JOAO VINTE TRES, 51",,-3.790088,-38.593193,,,0,,,
1972,,"AVENIDA LUIS VIEIRA, 1223",,-3.787518,-38.589961,,,0,,,
1973,,"AVENIDA MISTER HULL, 4856",,-3.739,-38.587893,,,0,,,
1974,,"AVENIDA MIT HULL, 4869",,-3.739324,-38.587961,,,0,,,
1975,,"RUA DOR JOAO GUILHERME, 373",,-3.737512,-38.58848,,,0,,,
1977,,"AVENIDA MIT HULL, 4261",,-3.738655,-38.583285,,,0,,,
1978,,"AVENIDA MISTER HULL, 4465",,-3.738306,-38.583002,,,0,,,
1979,,"AVENIDA MIT HULL, 4025",,-3.738122,-38.580383,,,0,,,
198,,"AVENIDA GODOFREDO MACIEL, 841",,-3.783838,-38.565918,,,0,,,
1980,,"AVENIDA MISTER HULL, S/N",,-3.738015,-38.580987,,,0,,,
1981,,"RUA RUI MONTE, 637",,-3.745591,-38.586523,,,0,,,
1982,,"RUA PRO EUGENIO ARRUDA, 683",,-3.745401,-38.586623,,,0,,,
1983,,"RUA RUI MONTE, 473",,-3.743063,-38.587277,,,0,,,
1984,,"RUA RUI MONTE, 440",,-3.742811,-38.5873,,,0,,,
1985,,"RUA RUI MONTE, 305",,-3.742013,-38.587354,,,0,,,
1986,,"RUA RUI MONTE, 250",,-3.741533,-38.587391,,,0,,,
1988,,"RUA MATOS DOURADO, 509",,-3.741236,-38.585075,,,0,,,
199,,"RUA PRIMEIRO DE JANEIRO, 96",,-3.785103,-38.565168,,,0,,,
1990,,"RUA CEL MATOS DOURADO, 661",,-3.744682,-38.584854,,,0,,,
1991,,"RUA MATOS DOURADO, 835",,-3.745763,-38.584965,,,0,,,
1992,,"AVENIDA MISTER HULL, SN",,-3.737803,-38.577956,,,0,,,
1993,,"AVENIDA MISTER HULL, SN",,-3.737598,-38.577982,,,0,,,
1994,,"RUA ANDRADE FURTADO, SN",,-3.739361,-38.572353,,,0,,,
1995,,"RUA ANDRADE FURTADO, SN",,-3.739469,-38.572291,,,0,,,
1996,,"AVENIDA MISTER  HULL, SN",,-3.737115,-38.572514,,,0,,,
1997,,"AVENIDA MISTER HULL, 3210",,-3.737085,-38.574095,,,0,,,
1999,,"RUA ENG HUMBERTO MONTE, 233",,-3.739194,-38.568849,,,0,,,
20,,"AVENIDA CEL CARVALHO, 612",,-3.708489,-38.59032,,,0,,,
200,,"AVENIDA GODOFREDO MACIEL, 1184",,-3.786139,-38.56677,,,0,,,
2003,,"AVENIDA MISTER HULL, SN",,-3.73681,-38.571699,,,0,,,
2004,,"RUA PRO ARMANDO FARIAS, SN",,-3.745172,-38.576592,,,0,,,
2005,,"RUA AURELIO CAMARA, SN",,-3.742517,-38.574904,,,0,,,
2006,,"RUA PRO ARMANDO FARIAS, UFC",,-3.745135,-38.573142,,,0,,,
2007,,"RUA AURÉLIO CAMARÁ, SN",,-3.742524,-38.574766,,,0,,,
2008,,"RUA ENG HUMBERTO MONTE, 2440",,-3.741276,-38.567315,,,0,,,
201,,"AVENIDA GODOFREDO MACIEL, 1184",,-3.786106,-38.566615,,,0,,,
2011,,"RUA ERICO MOTA, 476",,-3.740067,-38.56203,,,0,,,
2013,,"RUA ERICO MOTA, 226",,-3.737937,-38.562462,,,0,,,
2014,,"AVENIDA JOVITA FEITOSA, 2680",,-3.74074,-38.561144,,,0,,,
2015,,"AVENIDA JOVITA FEITOSA, 2720",,-3.740888,-38.561375,,,0,,,
2016,,"AVENIDA JOVITA FEITOSA, 2902",,-3.741229,-38.563455,,,0,,,
2017,,"AVENIDA JOVITA FEITOSA, 2426",,-3.740314,-38.559022,,,0,,,
2018,,"AVENIDA JOVITA FEITOSA, 2423",,-3.740389,-38.55893,,,0,,,
2019,,"RUA ENG HUMBERTO MONTE, 1999",,-3.743933,-38.564643,,,0,,,
2020,,"RUA ENG HUMBERTO MONTE, 2035",,-3.742547,-38.565983,,,0,,,
2021,,"RUA ENG HUMBERTO MONTE, 2290",,-3.742323,-38.566015,,,0,,,
2022,,"AVENIDA JOVITA FEITOSA, 3116",,-3.741668,-38.565612,,,0,,,
2023,,"AVENIDA JOVITA FEITOSA, 3147",,-3.741821,-38.565853,,,0,,,
2026,,"RUA ERICO MOTA, 582",,-3.741519,-38.561726,,,0,,,
2027,,"RUA ERICO MOTA, 754",,-3.743397,-38.561335,,,0,,,
2029,,"RUA AMADEU FURTADO, 944",,-3.743946,-38.562345,,,0,,,
2030,,"RUA ENG HUMBERTO MONTE, 1735",,-3.745692,-38.563421,,,0,,,
2031,,"RUA ENG HUMBERTO MONTE, 1730",,-3.745384,-38.563513,,,0,,,
2032,,"AVENIDA JOVITA FEITOSA, 2879",,-3.74137,-38.563662,,,0,,,
2033,,"RUA NESTOR BARBOSA, 272",,-3.74457,-38.557981,,,0,,,
2034,,"RUA PRO LINO ENCARNACAO, 720",,-3.741843,-38.560531,,,0,,,
2035,,"RUA PRO LINO ENCARNACAO, 960",,-3.74392,-38.560104,,,0,,,
2036,,"RUA NESTOR BARBOSA, 608",,-3.745059,-38.560375,,,0,,,
2037,,"RUA ERICO MOTA, 982",,-3.745391,-38.560941,,,0,,,
2038,,"AVENIDA JOVITA FEITOSA, 1216",,-3.739557,-38.554791,,,0,,,
2039,,"AVENIDA JOVITA FEITOSA, 1287",,-3.739701,-38.555923,,,0,,,
204,,"RUA FAGUNDES VARELA, 551",,-3.783589,-38.56274,,,0,,,
2040,,"AVENIDA JOVITA FEITOSA, 2160",,-3.739973,-38.556852,,,0,,,
2041,,"AVENIDA JOVITA FEITOSA, 711",,-3.738608,-38.550197,,,0,,,
2042,,"AVENIDA JOVITA FEITOSA, 1080",,-3.73908,-38.552798,,,0,,,
2043,,"AVENIDA JOVITA FEITOSA, 1110",,-3.739184,-38.552908,,,0,,,
2044,,"AVENIDA JOVITA FEITOSA, 444",,-3.737965,-38.547636,,,0,,,
2045,,"AVENIDA JOVITA FEITOSA, 447",,-3.738115,-38.547879,,,0,,,
2046,,"AVENIDA JOVITA FEITOSA, 740",,-3.738591,-38.550548,,,0,,,
2051,,"AVENIDA JOVITA FEITOSA, 125",,-3.737565,-38.54531,,,0,,,
2052,,"AVENIDA JOVITA FEITOSA, 1057",,-3.737549,-38.545631,,,0,,,
2053,,"AVENIDA CARAPINIMA, 2608",,-3.741986,-38.542339,,,0,,,
2054,,"AVENIDA 13 DE MAIO, 2821",,-3.739734,-38.540469,,,0,,,
2055,,"AVENIDA 13 DE MAIO, 2959",,-3.738947,-38.54152,,,0,,,
2056,,"AVENIDA 13 DE MAIO, 3008",,-3.738123,-38.542317,,,0,,,
2059,,"RUA TEREZA CRISTINA, 2282",,-3.738604,-38.540327,,,0,,,
206,,"RUA JULIO GASPAR, 469",,-3.782236,-38.563325,,,0,,,
2061,,"RUA CARAPINIMA, 1707",,-3.739233,-38.539345,,,0,,,
2062,,"AVENIDA DA UNIVERSIDADE, SN",,-3.740636,-38.53882,,,0,,,
2063,,"AVENIDA DA UNIVERSIDADE, SN",,-3.740476,-38.538676,,,0,,,
2064,,"AVENIDA DA UNIVERSIDADE, SN",,-3.740358,-38.538569,,,0,,,
2067,,"AVENIDA JOSE BASTOS, SN",,-3.74523,-38.545759,,,0,,,
2069,,"AVENIDA DA UNIVERSIDADE, 3229",,-3.74401,-38.541875,,,0,,,
2072,,"AVENIDA CARAPINIMA, 2415",,-3.741465,-38.541628,,,0,,,
2073,,"RUA PAULINO NOGUEIRA, 77",,-3.74553,-38.535913,,,0,,,
2074,,"RUA MAL DEODORO, SN",,-3.743654,-38.536833,,,0,,,
2075,,"AVENIDA 13 DE MAIO, SN",,-3.743859,-38.535791,,,0,,,
2076,,"AVENIDA 13 DE MAIO, 2298",,-3.742565,-38.537292,,,0,,,
2077,,"RUA WALDERY UCHOA, 198",,-3.743876,-38.538757,,,0,,,
2078,,"AVENIDA 13 DE MAIO, SN",,-3.741238,-38.538839,,,0,,,
2079,,"AVENIDA 13 DE MAIO, SN",,-3.741752,-38.538237,,,0,,,
2080,,"AVENIDA 13 DE MAIO, 2400",,-3.741915,-38.538046,,,0,,,
2081,,"AVENIDA 13 DE MAIO, SN",,-3.741418,-38.538486,,,0,,,
2082,,"RUA MAL DEODORO, 733",,-3.74219,-38.536177,,,0,,,
2083,,"RUA SEN POMPEU, 2607",,-3.740694,-38.533797,,,0,,,
2084,,"RUA SEN POMPEU, 2332",,-3.739322,-38.533385,,,0,,,
2085,,"RUA SEN POMPEU, 2062",,-3.736552,-38.532549,,,0,,,
2086,,"RUA DOMINGOS OLIMPIO, 1608 A",,-3.736811,-38.530995,,,0,,,
2087,,"RUA ASSUNCAO, 939",,-3.738181,-38.529875,,,0,,,
2088,,"RUA ASSUNCAO, 1191",,-3.740073,-38.530504,,,0,,,
2089,,"RUA SOLON PINHEIRO, 948",,-3.738649,-38.529066,,,0,,,
209,,"RUA JOSE MENELEU  (D41), 660",,-3.785794,-38.561499,,,0,,,
2091,,"RUA SOLON PINHEIRO, 736",,-3.73691,-38.528478,,,0,,,
2093,,"RUA JAIME BENEVOLO, 839",,-3.739046,-38.527664,,,0,,,
2094,,"RUA JAIME BENEVOLO, 1039",,-3.741065,-38.528336,,,0,,,
2095,,"AVENIDA AGUANAMBI, 90",,-3.741117,-38.525615,,,0,,,
2097,,"RUA DOMINGOS OLIMPIO, 150",,-3.73837,-38.525631,,,0,,,
2098,,"RUA SEN POMPEU, 2768",,-3.74294,-38.534475,,,0,,,
2099,,"RUA ASSUNCAO, 1337",,-3.741766,-38.531066,,,0,,,
21,,"AVENIDA CEL CARVALHO, 830",,-3.709432,-38.589948,,,0,,,
210,,"RUA PRIMEIRO DE JANEIRO, 595",,-3.786477,-38.560656,,,0,,,
2100,,"RUA ASSUNCAO, 1514",,-3.743247,-38.531571,,,0,,,
2101,,"RUA PDE MIGUELINHO, 835",,-3.743715,-38.530459,,,0,,,
2102,,"RUA SALDANHA MARINHO, 635",,-3.742697,-38.53009,,,0,,,
2103,,"RUA FELINO BARROSO, 289",,-3.745213,-38.52841,,,0,,,
2104,,"RUA FELINO BARROSO, 128",,-3.743459,-38.528614,,,0,,,
2105,,"RUA FELINO BARROSO, 216",,-3.74478,-38.528457,,,0,,,
2106,,"RUA CEL SOLON, 441",,-3.743077,-38.5279,,,0,,,
2108,,"AVENIDA AGUANAMBI, 899",,-3.744545,-38.525651,,,0,,,
2109,,"RUA CEL SOLON, 290 A",,-3.742896,-38.526202,,,0,,,
211,,"RUA JOSE MENELEU  (D41), 438",,-3.783931,-38.560434,,,0,,,
2112,,"AVENIDA AGUANAMBI, 94",,-3.737729,-38.524315,,,0,,,
2113,,"RUA PDE VALDEVINO, SN",,-3.737348,-38.522479,,,0,,,
2115,,"AVENIDA ANTONIO SALES, 145",,-3.739636,-38.521045,,,0,,,
2119,,"RUA PADRE VALDEVINO, 1071",,-3.739859,-38.514523,,,0,,,
212,,"RUA JOSE MENELEU  (D41), 194",,-3.782649,-38.559385,,,0,,,
2121,,"RUA ANTONIO AUGUSTO, 2811",,-3.744627,-38.518163,,,0,,,
2122,,"RUA PINHO PESSOA, 745",,-3.74492,-38.515501,,,0,,,
2125,,"RUA PDE VALDEVINO, S/N",,-3.740862,-38.51135,,,0,,,
2126,,"AVENIDA HERACLITO GRACA, 1515",,-3.737844,-38.511562,,,0,,,
2127,,"AVENIDA HERACLITO GRACA, 1839",,-3.738099,-38.511094,,,0,,,
2128,,"AVENIDA BAR STUDART, 1490",,-3.737114,-38.507367,,,0,,,
2129,,"AVENIDA BAR STUDART, 1490",,-3.737372,-38.50753,,,0,,,
2130,,"AVENIDA BAR STUDART, 1666",,-3.740227,-38.508455,,,0,,,
2131,,"AVENIDA BAR STUDART, 1966",,-3.740577,-38.508472,,,0,,,
2132,,"RUA DOR JOSE LOURENCO, 1860",,-3.739913,-38.50947,,,0,,,
2133,,"AVENIDA JÚLIO VENTURA, 1631",,-3.738874,-38.508768,,,0,,,
2134,,"AVENIDA JÚLIO VENTURA, 1600",,-3.738576,-38.509308,,,0,,,
2136,,"AVENIDA JULIO VENTURA, 2267",,-3.74048,-38.504429,,,0,,,
2137,,"AVENIDA JULIO VENTURA, 110",,-3.739695,-38.506728,,,0,,,
2139,,"AVENIDA BAR STUDART, 2406",,-3.744544,-38.509754,,,0,,,
214,,"RUA SUECIA, 1012",,-3.783821,-38.557854,,,0,,,
2141,,"AVENIDA BAR STUDART, SN",,-3.742771,-38.509269,,,0,,,
2142,,"AVENIDA BARRÃO DE TUDART, SN",,-3.743034,-38.50926,,,0,,,
2143,,"RUA DOR JOSE LOURENCO, 2140",,-3.742613,-38.510343,,,0,,,
2146,,"AVENIDA PADRE ENTÔNIO TOMAS, 150",,-3.739386,-38.502058,,,0,,,
2147,,"AVENIDA PDE ANTONIO TOMAS, 292",,-3.739719,-38.50102,,,0,,,
2148,,"AVENIDA DES MOREIRA, 1250",,-3.736591,-38.498553,,,0,,,
2149,,"AVENIDA DES MOREIRA, SN",,-3.739044,-38.49931,,,0,,,
2150,,"AVENIDA DESEMBARGADOR MOREIRA, SN",,-3.738981,-38.499196,,,0,,,
2151,,"RUA TORRES CAMARA, SN",,-3.738046,-38.499481,,,0,,,
2152,,"AVENIDA SANTOS DUMONT, SN",,-3.736819,-38.496667,,,0,,,
2153,,"AVENIDA PADRE ANTONIO TOMAS, SN",,-3.740378,-38.499001,,,0,,,
2154,,"AVENIDA PDE ANTONIO TOMAS, SN",,-3.740385,-38.49898,,,0,,,
2155,,"AVENIDA EMBRACON, 770",,-3.741002,-38.497067,,,0,,,
2159,,"RUA PAULA NEI, 365",,-3.740588,-38.494971,,,0,,,
216,,"RUA JULIO ALCIDES, 132",,-3.788368,-38.565095,,,0,,,
2160,,"AVENIDA DES MOREIRA, 4300",,-3.741979,-38.500292,,,0,,,
2162,,"AVENIDA ANTONIO SALES, SN",,-3.745509,-38.502167,,,0,,,
2163,,"AVENIDA DESEMBARGADOR MOREIRA, 2033",,-3.743409,-38.500637,,,0,,,
2164,,"AVENIDA DES MOREIRA, 2120",,-3.743545,-38.500781,,,0,,,
2165,,"RUA PDE VALDEVINO, 1687",,-3.744211,-38.500521,,,0,,,
2166,,"RUA PADRE VALDEVINO, 429",,-3.745369,-38.496936,,,0,,,
2168,,"RUA LEONARDO MOTA, 1770",,-3.741652,-38.497939,,,0,,,
2169,,"AVENIDA PDE ANTONIO TOMAS, 841",,-3.741275,-38.496233,,,0,,,
217,,"RUA NORUEGA, 124",,-3.789665,-38.564801,,,0,,,
2170,,"AVENIDA PDE ANTONIO TOMAS, 871",,-3.741388,-38.495881,,,0,,,
2171,,"AVENIDA SEN VIRGILIO TAVORA, 1820",,-3.742344,-38.494994,,,0,,,
2172,,"AVENIDA PADRE ANTONIO TOMAS, 2030",,-3.741951,-38.49415,,,0,,,
2173,,"AVENIDA PDE ANTONIO TOMAS, 2030",,-3.741926,-38.494227,,,0,,,
2174,,"AVENIDA SEN VIRGILIO TAVORA, 1901",,-3.743278,-38.495201,,,0,,,
2175,,"AVENIDA SEN VIRGILIO TAVORA, 2174",,-3.745338,-38.495858,,,0,,,
2179,,"AVENIDA SANTOS DUMONT, 3757",,-3.739037,-38.489806,,,0,,,
218,,"RUA CARLOS JUACABA, 661",,-3.78919,-38.561073,,,0,,,
2185,,"AVENIDA ENG SANTANA JUNIOR, 1185",,-3.737655,-38.483407,,,0,,,
2186,,"RUA DES WALDETARIO P MOTA, 949",,-3.738401,-38.481608,,,0,,,
2188,,"AVENIDA SANTOS DUMONT, 5283",,-3.740936,-38.483912,,,0,,,
219,,"RUA CARLOS JUACABA, 657",,-3.789127,-38.560932,,,0,,,
2191,,"AVENIDA PDE ANTONIO TOMAS, 2420",,-3.743236,-38.490223,,,0,,,
2192,,"AVENIDA PDE ANTONIO TOMAS, 2291",,-3.742806,-38.491542,,,0,,,
2193,,"AVENIDA PDE ANTONIO TOMAS, 2233",,-3.742531,-38.492384,,,0,,,
2195,,"AVENIDA ALM HENRIQUE SABÓIA, 4114",,-3.745195,-38.490604,,,0,,,
2197,,"AVENIDA ENG SANTANA JUNIOR, 1901",,-3.74248,-38.486456,,,0,,,
220,,"RUA CARLOS JUACABA, 1435",,-3.791183,-38.561822,,,0,,,
2201,,"RUA ANDRADE FURTADO, 515",,-3.744147,-38.484779,,,0,,,
2202,,"RUA ANDRADE FURTADO, 764",,-3.744786,-38.482624,,,0,,,
2203,,"RUA DES WALDETARIO P MOTA, 1517",,-3.742331,-38.484094,,,0,,,
2204,,"RUA DR GILBERTO STUDART, 630",,-3.743046,-38.482722,,,0,,,
2205,,"RUA JULIO AZEVEDO, 1516",,-3.743359,-38.48254,,,0,,,
2206,,"RUA JULIO AZEVEDO, 1345",,-3.742025,-38.481694,,,0,,,
2207,,"RUA DOR GILBERTO STUDART, 424",,-3.742467,-38.48452,,,0,,,
221,,"AVENIDA FRANCISCO SA, 5705",,-3.711183,-38.575577,,,0,,,
2210,,"RUA LAURO NOGUEIRA, 1165",,-3.740765,-38.476181,,,0,,,
2212,,"RUA LAURO NOGUEIRA, 865",,-3.740237,-38.47783,,,0,,,
2213,,"RUA ANDRE DALL OCIO, 926",,-3.740352,-38.476619,,,0,,,
2214,,"AVENIDA SANTOS DUMONT, S/N",,-3.741811,-38.481218,,,0,,,
2216,,"AVENIDA SANTOS DUMONT, 2021",,-3.742686,-38.478511,,,0,,,
2218,,"AVENIDA SANTOS DUMONT, 6350",,-3.743482,-38.476044,,,0,,,
222,,"AVENIDA FRANCISCO SA, 5855",,-3.710712,-38.576925,,,0,,,
2229,,"AVENIDA DIOGUINHO, 2950",,-3.741735,-38.453268,,,0,,,
223,,"AVENIDA FRANCISCO SA, 5928",,-3.710547,-38.577406,,,0,,,
2230,,"AVENIDA DIOGUINHO, 2950",,-3.741512,-38.453388,,,0,,,
2231,,"AVENIDA DIOGUINHO, SN",,-3.743741,-38.452194,,,0,,,
2232,,"AVENIDA DIOGUINHO, S/N",,-3.743546,-38.45231,,,0,,,
2233,,"RUA 24 DE OUTUBRO, 103",,-3.749932,-38.602335,,,0,,,
2234,,"RUA BOA ESPERANCA  (D73), 168",,-3.751699,-38.604055,,,0,,,
2235,,"RUA BOA ESPERANCA  (D73), 252",,-3.752813,-38.604269,,,0,,,
2237,,"AVENIDA SEN FERNANDES TAVORA, 3370",,-3.754301,-38.602794,,,0,,,
2238,,"AVENIDA SEN FERNANDES TAVORA, 3131",,-3.75429,-38.602853,,,0,,,
2239,,"RUA 24 DE OUTUBRO, 325",,-3.752438,-38.602736,,,0,,,
224,,"AVENIDA FRANCISCO SA, 6000",,-3.710036,-38.578834,,,0,,,
2240,,"RUA 24 DE OUTUBRO, 225",,-3.750931,-38.60246,,,0,,,
2241,,"RUA BOA ESPERANCA  (D73), 89",,-3.750468,-38.603739,,,0,,,
2242,,"RUA PROF VIRGILIO DE MORAIS, 163",,-3.749752,-38.596372,,,0,,,
2246,,"RUA HIPOLITO PAMPLONA, 639",,-3.746368,-38.595925,,,0,,,
2247,,"RUA JOAQUIM LEITAO, 910",,-3.746201,-38.591824,,,0,,,
2248,,"RUA JOAQUIM LEITAO, 1042",,-3.747404,-38.591642,,,0,,,
2249,,"RUA DOR MANUEL SOARES, 940",,-3.747337,-38.590584,,,0,,,
2250,,"RUA PROF VIRGILIO DE MORAIS, 654",,-3.754368,-38.597252,,,0,,,
2252,,"RUA PROF VIRGILIO DE MORAIS, 426",,-3.752159,-38.596828,,,0,,,
2254,,"RUA PROF VIRGILIO DE MORAIS, 366",,-3.751516,-38.5967,,,0,,,
2255,,"RUA PROF VIRGILIO DE MORAIS, 206",,-3.750254,-38.596469,,,0,,,
2256,,"RUA PRO EDGAR DE ARRUDA, 1978",,-3.754444,-38.591864,,,0,,,
2257,,"RUA RORAIMA, 501",,-3.752996,-38.591654,,,0,,,
2258,,"RUA MACAPA, 213",,-3.75032,-38.590244,,,0,,,
226,,"AVENIDA FRANCISCO SA, 5303",,-3.712424,-38.57194,,,0,,,
2262,,"AVENIDA PRS COSTA E SILVA, SN",,-3.817232,-38.566143,,,0,,,
2263,,"AVENIDA PRS COSTA E SILVA, 978",,-3.812912,-38.570944,,,0,,,
2264,,"RUA PAU BRASIL, 320 A",,-3.749762,-38.586168,,,0,,,
2266,,"RUA MATOS DOURADO, 1349",,-3.748522,-38.584655,,,0,,,
2267,,"RUA MATOS DOURADO, 1340",,-3.748397,-38.584816,,,0,,,
2268,,"RUA MATOS DOURADO, 1281",,-3.750278,-38.58444,,,0,,,
2269,,"RUA TARCISIO PEIXOTO, 310",,-3.749762,-38.586168,,,0,,,
227,,"AVENIDA FRANCISCO SA, 5607",,-3.712169,-38.57268,,,0,,,
2270,,"RUA CRAVILANDIA, 154",,-3.748851,-38.585978,,,0,,,
2271,,"RUA CRAVILANDIA, 158",,-3.748649,-38.586082,,,0,,,
2274,,"RUA PLANALTO DO PICI, 2805",,-3.749876,-38.579578,,,0,,,
2275,,"RUA PERNAMBUCO, 2951",,-3.749723,-38.57972,,,0,,,
2276,,"RUA PERNAMBUCO, 3175",,-3.748921,-38.580454,,,0,,,
2277,,"RUA PERNAMBUCO, 3311",,-3.747712,-38.581579,,,0,,,
2278,,"RUA BASILICA, 3371",,-3.747699,-38.581591,,,0,,,
2279,,"RUA TARCISIO PEIXOTO, 1066",,-3.751225,-38.587281,,,0,,,
228,,"AVENIDA FRANCISCO SA, 5550",,-3.711783,-38.573827,,,0,,,
2280,,"RUA TARCISIO PEIXOTO, 1035",,-3.751184,-38.587249,,,0,,,
2281,,"RUA MATOS DOURADO, 300 A",,-3.750779,-38.583845,,,0,,,
2282,,"RUA MATOS DOURADO, SN",,-3.752764,-38.582794,,,0,,,
2283,,"RUA MATOS DOURADO, SN",,-3.752962,-38.583022,,,0,,,
2284,,"RUA SILVA BAIMA, 911",,-3.753813,-38.585962,,,0,,,
2285,,"RUA COS ARAUJO LIMA, 900",,-3.752195,-38.586042,,,0,,,
2286,,"RUA FRANCO ROCHA, 463",,-3.753964,-38.58157,,,0,,,
2287,,"RUA PRO ARMANDO FARIAS, 89",,-3.746828,-38.577707,,,0,,,
2288,,"RUA PRO ARMANDO FARIAS, UFC",,-3.747897,-38.576146,,,0,,,
229,,"AVENIDA FRANCISCO SA, 5652",,-3.711497,-38.574684,,,0,,,
2290,,"RUA PRO ARMANDO FARIAS, UFC",,-3.747144,-38.57374,,,0,,,
2292,,"RUA ALVARES MACIEL, 1068",,-3.748447,-38.571614,,,0,,,
2299,,"RUA PERNAMBUCO, 2671",,-3.751316,-38.57822,,,0,,,
23,,"AVENIDA PRS CASTELO BRANCO, 5990",,-3.7019,-38.583536,,,0,,,
230,,"AVENIDA FRANCISCO SA, 5036",,-3.713289,-38.569424,,,0,,,
2300,,"RUA PERNAMBUCO, 2461",,-3.752879,-38.576762,,,0,,,
2301,,"RUA PIAUI, 1372",,-3.752793,-38.571764,,,0,,,
2302,,"RUA PIAUI, 1346",,-3.752716,-38.57184,,,0,,,
2304,,"RUA PIAUI, 1646",,-3.751736,-38.572759,,,0,,,
2305,,"RUA ESPIRITO SANTO, 618",,-3.753688,-38.568644,,,0,,,
2306,,"RUA ESPIRITO SANTO, 622",,-3.753746,-38.568679,,,0,,,
2307,,"RUA ESPIRITO SANTO, 513",,-3.754223,-38.568985,,,0,,,
2308,,"RUA ESPIRITO SANTO, 760",,-3.754759,-38.56932,,,0,,,
2309,,"RUA PIAUI, 1330",,-3.75404,-38.570611,,,0,,,
231,,"AVENIDA FRANCISCO SA, 5036",,-3.713153,-38.569823,,,0,,,
2310,,"RUA ARGENTINA, 210",,-3.747463,-38.564571,,,0,,,
2311,,"RUA ARGENTINA, 378",,-3.748396,-38.565544,,,0,,,
2312,,"RUA ARGENTINA, 434",,-3.748613,-38.565755,,,0,,,
2313,,"RUA ESPIRITO SANTO, 71",,-3.749525,-38.565988,,,0,,,
2314,,"RUA ESPIRITO SANTO, 90",,-3.749631,-38.566056,,,0,,,
2315,,"RUA VIRIATO RIBEIRO, 1031",,-3.749451,-38.562065,,,0,,,
2317,,"RUA VIRIATO RIBEIRO, 1163",,-3.748043,-38.56345,,,0,,,
2318,,"RUA VIRIATO RIBEIRO, 1228",,-3.747515,-38.563961,,,0,,,
232,,"RUA ADOLFO B DE MENEZES, 6417",,-3.716704,-38.577567,,,0,,,
2321,,"RUA HUMBERTO MONTE, 1333",,-3.747045,-38.562306,,,0,,,
2322,,"RUA ENG HUMBERTO MONTE, 1244",,-3.748275,-38.561075,,,0,,,
2323,,"RUA FRANCISCA CLOTILDE, 1356",,-3.748139,-38.557754,,,0,,,
2324,,"RUA FREI MARCELINO, 1495",,-3.748223,-38.556489,,,0,,,
2325,,"RUA CESAR FONTENELE, 132",,-3.745981,-38.557862,,,0,,,
2327,,"RUA CESAR FONTENELE, 422",,-3.746488,-38.560253,,,0,,,
2329,,"RUA FRANCISCA CLOTILDE, 1543",,-3.749689,-38.559152,,,0,,,
233,,"RUA TEODORO DE CASTRO, 6412",,-3.716558,-38.577583,,,0,,,
2332,,"RUA MARANHAO, 693",,-3.754708,-38.56721,,,0,,,
2334,,"RUA ESTADO DO RIO, 205",,-3.753422,-38.567628,,,0,,,
2335,,"RUA ESPIRITO SANTO, 310",,-3.751828,-38.56749,,,0,,,
2336,,"RUA ESPIRITO SANTO, 363",,-3.751569,-38.567328,,,0,,,
2337,,"RUA VIRIATO RIBEIRO, 794",,-3.750505,-38.561034,,,0,,,
2338,,"RUA VIRIATO RIBEIRO, 807",,-3.750449,-38.561088,,,0,,,
2339,,"RUA RIO GRANDE DO SUL, 206",,-3.750935,-38.562133,,,0,,,
234,,"RUA TEODORO DE CASTRO, 6264",,-3.717134,-38.576051,,,0,,,
2340,,"RUA DOS ESTADOS, 745",,-3.75252,-38.56307,,,0,,,
2343,,"RUA VIRIATO RIBEIRO, 176",,-3.754208,-38.557363,,,0,,,
2344,,"RUA VIRIATO RIBEIRO, 416",,-3.752986,-38.558583,,,0,,,
2345,,"RUA VIRIATO RIBEIRO, 160",,-3.752651,-38.558913,,,0,,,
2346,,"RUA VIRIATO RIBEIRO, 597",,-3.751959,-38.559596,,,0,,,
2347,,"RUA VIRIATO RIBEIRO, 646",,-3.751526,-38.560026,,,0,,,
2348,,"RUA ENG HUMBERTO MONTE, 893",,-3.750953,-38.559046,,,0,,,
2349,,"RUA PAPI JUNIOR, 1925",,-3.752264,-38.5574,,,0,,,
235,,"RUA TEODORO DE CASTRO, 6180",,-3.717257,-38.575706,,,0,,,
2350,,"RUA PAPI JUNIOR, 1942",,-3.752361,-38.557502,,,0,,,
2351,,"RUA JOSE FACANHA, 685",,-3.751821,-38.55761,,,0,,,
2352,,"RUA JOSE FACANHA, 933",,-3.750545,-38.559016,,,0,,,
2356,,"RUA MAJ PEDRO SAMPAIO, 1202",,-3.746872,-38.55396,,,0,,,
2357,,"RUA MAJ PEDRO SAMPAIO, 2357",,-3.747454,-38.554469,,,0,,,
2358,,"RUA PRO COSTA MENDES, 1904",,-3.747487,-38.554871,,,0,,,
2359,,"RUA PRO COSTA MENDES, 2050",,-3.746614,-38.555829,,,0,,,
236,,"RUA FRANCISCO CALACA, 1824",,-3.717426,-38.574256,,,0,,,
2365,,"RUA MAJ PEDRO SAMPAIO, 1048",,-3.745864,-38.553046,,,0,,,
2366,,"RUA PRO COSTA MENDES, 1290",,-3.75118,-38.550809,,,0,,,
2367,,"RUA PRO COSTA MENDES, 1490",,-3.749608,-38.55253,,,0,,,
2369,,"AVENIDA JOSE BASTOS, SN",,-3.749254,-38.549814,,,0,,,
237,,"RUA FRANCISCO CALACA, 1776",,-3.716955,-38.574074,,,0,,,
2370,,"AVENIDA JOSE BASTOS, 3000",,-3.747019,-38.547382,,,0,,,
2371,,"AVENIDA JOAO PESSOA, 4110",,-3.749769,-38.547068,,,0,,,
2372,,"AVENIDA JOAO PESSOA, 4115",,-3.74981,-38.547106,,,0,,,
2373,,"AVENIDA JOSE BASTOS, 3984",,-3.748894,-38.549252,,,0,,,
2374,,"RUA PAPI JUNIOR, 1717",,-3.750992,-38.556315,,,0,,,
2375,,"RUA JOSE FACANHA, 464",,-3.753195,-38.55611,,,0,,,
2376,,"AVENIDA JOSE BASTOS, 4140",,-3.753804,-38.554387,,,0,,,
2377,,"AVENIDA JOSE BASTOS, 4140",,-3.754263,-38.554647,,,0,,,
2378,,"RUA ENG HUMBERTO MONTE, 491",,-3.75359,-38.556751,,,0,,,
2379,,"AVENIDA JOSE BASTOS, 3830",,-3.751859,-38.552448,,,0,,,
238,,"RUA FRANCISCO CALACA, 1553",,-3.715476,-38.573523,,,0,,,
2380,,"AVENIDA JOAO PESSOA, 4680",,-3.753348,-38.550286,,,0,,,
2381,,"RUA PRO COSTA MENDES, 805",,-3.75416,-38.547511,,,0,,,
2382,,"RUA PRO COSTA MENDES, 1026",,-3.752959,-38.548824,,,0,,,
2384,,"AVENIDA JOAO PESSOA, 4454",,-3.752104,-38.549171,,,0,,,
2386,,"AVENIDA JOAO PESSOA, 3907",,-3.748313,-38.545756,,,0,,,
2387,,"RUA MAJ WEYNE, 800",,-3.749104,-38.54395,,,0,,,
2389,,"AVENIDA JOAO PESSOA, 5619",,-3.746404,-38.544039,,,0,,,
239,,"RUA FRANCISCO CALACA, 1535",,-3.715167,-38.573406,,,0,,,
2392,,"AVENIDA EDUARDO GIRAO, 408",,-3.748646,-38.539537,,,0,,,
2393,,"AVENIDA EDUARDO GIRAO, 399",,-3.748692,-38.539709,,,0,,,
2394,,"RUA JULIO CESAR   (D12), 520",,-3.748701,-38.54161,,,0,,,
2395,,"AVENIDA EDUARDO GIRAO, 147",,-3.750168,-38.537782,,,0,,,
2396,,"AVENIDA EDUARDO GIRAO, 137",,-3.749883,-38.537889,,,0,,,
2397,,"AVENIDA DOS EXPEDICIONARIOS, 3442",,-3.748832,-38.536288,,,0,,,
2398,,"AVENIDA DOS EXPEDICIONARIOS, 3442",,-3.748447,-38.536084,,,0,,,
2399,,"RUA MAL DEODORO, 1280",,-3.746393,-38.538076,,,0,,,
240,,"RUA SAO BERNARDO, 65",,-3.715182,-38.571633,,,0,,,
2401,,"RUA JORGE DUMAR, 1517",,-3.748869,-38.538516,,,0,,,
2403,,"RUA JULIO CESAR   (D12), 798",,-3.750473,-38.543227,,,0,,,
2404,,"RUA JULIO CESAR   (D12), 1025",,-3.751988,-38.544598,,,0,,,
2406,,"RUA JULIO CESAR   (D12), 1240",,-3.753581,-38.545989,,,0,,,
2407,,"RUA PRÉ NOVE, 52",,-3.754778,-38.539263,,,0,,,
2408,,"RUA DAMASCENO GIRAO, 1854",,-3.751976,-38.539903,,,0,,,
2409,,"RUA DAMASCENO GIRAO, 2024",,-3.753069,-38.540144,,,0,,,
241,,"RUA DR. QUIXADA FELÍCIO, 241",,-3.715269,-38.571393,,,0,,,
2410,,"AVENIDA DOS EXPEDICIONARIOS, 3911",,-3.75231,-38.537269,,,0,,,
2411,,"AVENIDA DOS EXPEDICIONARIOS, 3910",,-3.752653,-38.537457,,,0,,,
2412,,"AVENIDA BORGES DE MELO, 2121",,-3.753954,-38.536939,,,0,,,
2413,,"AVENIDA BORGES DE MELO, 2145",,-3.753811,-38.537292,,,0,,,
2414,,"AVENIDA BORGES DE MELO, 73",,-3.752878,-38.538334,,,0,,,
2415,,"RUA JORGE DUMAR, SN",,-3.752214,-38.539256,,,0,,,
2416,,"AVENIDA 13 DE MAIO, 1574",,-3.746415,-38.532805,,,0,,,
2417,,"AVENIDA 13 DE MAIO, 1579",,-3.746803,-38.532208,,,0,,,
2418,,"AVENIDA DOS EXPEDICIONARIOS, 3080",,-3.745716,-38.535358,,,0,,,
2419,,"AVENIDA DOS EXPEDICIONARIOS, 3160",,-3.745686,-38.535267,,,0,,,
242,,"GALERIA DOR HUGO ROCHA, 19",,-3.717119,-38.57027,,,0,,,
2420,,"AVENIDA 13 DE MAIO, 1257",,-3.748583,-38.530149,,,0,,,
2421,,"AVENIDA 13 DE MAIO, 1257",,-3.749016,-38.529747,,,0,,,
2422,,"RUA COSTA ARAUJO, 761",,-3.74745,-38.529527,,,0,,,
2423,,"AVENIDA LUCIANO CARNEIRO, 125",,-3.748621,-38.531725,,,0,,,
2424,,"AVENIDA LUCIANO CARNEIRO, 345",,-3.750784,-38.532299,,,0,,,
2425,,"RUA JAIME BENEVOLO, 1915",,-3.74896,-38.53141,,,0,,,
2426,,"RUA MARIO MAMEDE, 1183",,-3.749473,-38.53122,,,0,,,
2427,,"RUA MARIO MAMEDE, 1183",,-3.750238,-38.530322,,,0,,,
2428,,"RUA NAPOLEAO LAUREANO, 600",,-3.747604,-38.528126,,,0,,,
2429,,"RUA FELINO BARROSO, 403",,-3.746474,-38.528258,,,0,,,
243,,"RUA SILVIO ROMERO, 75 A",,-3.718292,-38.570166,,,0,,,
2430,,"RUA FELINO BARROSO, 403",,-3.746403,-38.528267,,,0,,,
2432,,"AVENIDA AGUANAMBI, 1001",,-3.745383,-38.525319,,,0,,,
2435,,"AVENIDA LUCIANO CARNEIRO, 345",,-3.750803,-38.532392,,,0,,,
2436,,"AVENIDA LUCIANO CARNEIRO, 635",,-3.753641,-38.533268,,,0,,,
2437,,"AVENIDA LUCIANO CARNEIRO, 635",,-3.75407,-38.533318,,,0,,,
2439,,"RUA JOAQUIM BASTOS (D14), 806",,-3.75113,-38.531306,,,0,,,
244,,"AVENIDA PRS CASTELO BRANCO, 3312",,-3.710365,-38.562021,,,0,,,
2440,,"RUA GRACILIANO RAMOS, 52",,-3.752862,-38.53097,,,0,,,
2441,,"RUA GRACILIANO RAMOS, 154",,-3.753625,-38.53009,,,0,,,
2443,,"RUA MARIO MAMEDE, 943",,-3.751478,-38.528869,,,0,,,
2444,,"AVENIDA 13 DE MAIO, 927",,-3.750712,-38.527766,,,0,,,
2445,,"AVENIDA 13 DE MAIO, 866",,-3.75101,-38.527317,,,0,,,
2448,,"AVENIDA DEP OSWALDO STUDART, 68",,-3.752018,-38.526747,,,0,,,
2449,,"AVENIDA 13 DE MAIO, SN",,-3.752146,-38.526081,,,0,,,
245,,"AVENIDA PRO JOSE BONIFACIO, 3498",,-3.710197,-38.562199,,,0,,,
2451,,"RUA MARTINHO RODRIGUES, 678",,-3.754365,-38.526534,,,0,,,
2453,,"AVENIDA 13 DE MAIO, 465",,-3.752538,-38.52549,,,0,,,
2457,,"AVENIDA VIS RIO BRANCO, 3091",,-3.747967,-38.521603,,,0,,,
2458,,"AVENIDA VIS RIO BRANCO, 2885",,-3.746295,-38.52196,,,0,,,
2459,,"AVENIDA AGUANAMBI, 1393",,-3.749039,-38.52379,,,0,,,
246,,"AVENIDA PRS CASTELO BRANCO, 3567",,-3.70999,-38.563734,,,0,,,
2460,,"AVENIDA AGUANAMBI, 1346",,-3.748337,-38.524312,,,0,,,
2461,,"AVENIDA VIS RIO BRANCO, 3275",,-3.749736,-38.521237,,,0,,,
2462,,"RUA IDELFONSO ALBANO, 3049",,-3.747684,-38.517928,,,0,,,
2465,,"RUA IDELFONSO ALBANO, 2927",,-3.746445,-38.517554,,,0,,,
2466,,"RUA CEL ALVES TEIXEIRA, 765",,-3.745901,-38.514593,,,0,,,
2468,,"RUA FIS VIEIRA, 3228",,-3.749368,-38.516716,,,0,,,
2469,,"RUA SORIANO ALBUQUERQUE, 380",,-3.748352,-38.517366,,,0,,,
247,,"RUA RAUL POMPEIA, 218",,-3.713849,-38.564215,,,0,,,
2470,,"RUA SORIANO ALBUQUERQUE, 460",,-3.748374,-38.517293,,,0,,,
2472,,"AVENIDA 13 DE MAIO, 95",,-3.753689,-38.521349,,,0,,,
2474,,"AVENIDA AGUANAMBI, 1729",,-3.751752,-38.523353,,,0,,,
2475,,"AVENIDA AGUANAMBI, 1700",,-3.752088,-38.523515,,,0,,,
2478,,"AVENIDA VIS RIO BRANCO, 3450",,-3.751705,-38.520847,,,0,,,
2479,,"AVENIDA PONTES VIEIRA, 134",,-3.753364,-38.518549,,,0,,,
248,,"AVENIDA PASTEUR, 754",,-3.712623,-38.559315,,,0,,,
2480,,"AVENIDA PONTES VIEIRA, 134",,-3.753317,-38.519032,,,0,,,
2482,,"AVENIDA VIS RIO BRANCO, 3785",,-3.754285,-38.520334,,,0,,,
2483,,"RUA PRO CARVALHO, 3071",,-3.751584,-38.515183,,,0,,,
2484,,"AVENIDA PONTES VIEIRA, 692",,-3.752877,-38.514413,,,0,,,
2485,,"AVENIDA PONTES VIEIRA, 460",,-3.75306,-38.516052,,,0,,,
2487,,"AVENIDA PONTES VIEIRA, 440",,-3.753043,-38.516608,,,0,,,
249,,"AVENIDA PASTEUR, 635",,-3.711376,-38.558922,,,0,,,
2491,,"AVENIDA BAR STUDART, 3022",,-3.75062,-38.511674,,,0,,,
2492,,"AVENIDA BAR STUDART, 2780",,-3.748396,-38.511048,,,0,,,
2493,,"AVENIDA BAR STUDART, 2740",,-3.747732,-38.510744,,,0,,,
2494,,"RUA CEL ALVES TEIXEIRA, 1015",,-3.746162,-38.512152,,,0,,,
2496,,"RUA MARCONDES PEREIRA, 1048",,-3.749391,-38.507089,,,0,,,
2497,,"RUA TIBURCIO CAVALCANTI, 2870",,-3.749977,-38.507077,,,0,,,
2499,,"RUA MARCONDES PEREIRA, 954",,-3.748683,-38.509287,,,0,,,
25,,"AVENIDA PRESIDENTE CASTELO BRANCO, SN",,-3.700812,-38.585813,,,0,,,
2502,,"RUA OSVALDO CRUZ, 2410",,-3.747121,-38.504042,,,0,,,
2503,,"RUA JOAQUIM NABUCO, 2388",,-3.746026,-38.504743,,,0,,,
2504,,"RUA JOAQUIM NABUCO, 26355",,-3.747915,-38.505347,,,0,,,
2505,,"RUA TIBURCIO CAVALCANTI, 2399",,-3.748453,-38.506587,,,0,,,
2506,,"RUA TIBURCIO CAVALCANTI, 2378",,-3.745759,-38.505726,,,0,,,
2507,,"AVENIDA PONTES VIEIRA, 832",,-3.75275,-38.513372,,,0,,,
2508,,"AVENIDA PONTES VIEIRA, 855",,-3.752625,-38.513088,,,0,,,
2509,,"AVENIDA BAR STUDART, 3103",,-3.750906,-38.511851,,,0,,,
251,,"AVENIDA PRS CASTELO BRANCO, 3139",,-3.711271,-38.55833,,,0,,,
2510,,"RUA SORIANO ALBUQUERQUE, 335",,-3.750506,-38.510505,,,0,,,
2511,,"AVENIDA PONTES VIEIRA, 1380",,-3.752186,-38.509376,,,0,,,
2512,,"AVENIDA PONTES VIEIRA, 1465",,-3.752192,-38.508648,,,0,,,
2513,,"RUA TIBURCIO CAVALCANTI, 3068",,-3.751543,-38.507591,,,0,,,
2514,,"AVENIDA PONTES VIEIRA, 1599",,-3.751956,-38.506602,,,0,,,
2515,,"AVENIDA PONTES VIEIRA, 1599",,-3.751839,-38.506418,,,0,,,
2517,,"AVENIDA RAUL BARBOSA, 3059",,-3.753863,-38.504001,,,0,,,
2518,,"AVENIDA PONTES VIEIRA, 1960",,-3.751664,-38.504091,,,0,,,
2519,,"AVENIDA PONTES VIEIRA, 2001",,-3.751552,-38.503915,,,0,,,
252,,"AVENIDA PASTEUR, 514",,-3.710637,-38.558696,,,0,,,
2520,,"AVENIDA DOR RAUL BARBOSA, 3034",,-3.753601,-38.504027,,,0,,,
2521,,"AVENIDA DES MOREIRA, 2355",,-3.746464,-38.501676,,,0,,,
2522,,"AVENIDA DESEMBARGADOR MOREIRA, 2355",,-3.746797,-38.501695,,,0,,,
2523,,"AVENIDA DES MOREIRA, 26600",,-3.749063,-38.50252,,,0,,,
2524,,"AVENIDA DESEMBARGADOR MOREIRA, 2669",,-3.749189,-38.502461,,,0,,,
2525,,"AVENIDA DES MOREIRA, 2808",,-3.750155,-38.502858,,,0,,,
2529,,"RUA LEONARDO MOTA, 2301",,-3.746088,-38.499355,,,0,,,
253,,"AVENIDA PRS CASTELO BRANCO, 3257",,-3.71077,-38.560445,,,0,,,
2531,,"AVENIDA SEN VIRGILIO TAVORA, 2475",,-3.747969,-38.496766,,,0,,,
2532,,"AVENIDA SEN VIRGILIO TAVORA, 2630",,-3.750085,-38.497445,,,0,,,
2534,,"AVENIDA SEN VIRGILIO TAVORA, 2225",,-3.745283,-38.495936,,,0,,,
2535,,"RUA PDE VALDEVINO, 421",,-3.745497,-38.496556,,,0,,,
2538,,"AVENIDA ANTONIO SALES, S/N",,-3.748435,-38.492703,,,0,,,
2539,,"AVENIDA ALM HENRIQUE SABOIA, 3601",,-3.749789,-38.494099,,,0,,,
254,,"AVENIDA PRS CASTELO BRANCO, 300",,-3.710565,-38.560728,,,0,,,
2541,,"AVENIDA ANTONIO SALES, 3266",,-3.747749,-38.495009,,,0,,,
2542,,"RUA ALM HENRIQUE SABOIA, 50",,-3.752202,-38.499985,,,0,,,
2543,,"RUA ALM HENRIQUE SABOIA, 55",,-3.753164,-38.501682,,,0,,,
2544,,"AVENIDA PONTES VIEIRA, 2855",,-3.751302,-38.501033,,,0,,,
2545,,"AVENIDA PONTES VIEIRA, 2551",,-3.750958,-38.499021,,,0,,,
2546,,"AVENIDA PONTES VIEIRA, 2490",,-3.751022,-38.498699,,,0,,,
2547,,"AVENIDA ANTONIO SALES, 3378",,-3.748894,-38.491192,,,0,,,
2548,,"AVENIDA ENG SANTANA JUNIOR, SN",,-3.750082,-38.490293,,,0,,,
2549,,"AVENIDA ENG SANTANA JUNIOR, SN",,-3.749521,-38.490041,,,0,,,
255,,"AVENIDA DOR THEBERGE, 1988",,-3.718141,-38.566105,,,0,,,
2550,,"AVENIDA ENG SANTANA JUNIOR, SN",,-3.753264,-38.490863,,,0,,,
2551,,"RUA ANDRADE FURTADO, 1195",,-3.746236,-38.478124,,,0,,,
2552,,"AVENIDA PDE ANTONIO TOMAS, 4661",,-3.746986,-38.478551,,,0,,,
2553,,"RUA BENTO ALBUQUERQUE, 1614",,-3.74657,-38.474433,,,0,,,
2554,,"RUA BENTO ALBUQUERQUE, 1400",,-3.745975,-38.476291,,,0,,,
2555,,"AVENIDA PDE ANTONIO TOMAS, 1540",,-3.747133,-38.47615,,,0,,,
2556,,"RUA BENTO ALBUQUERQUE, 2100",,-3.747375,-38.471925,,,0,,,
2557,,"RUA JOSE BORBA, 585",,-3.747939,-38.472469,,,0,,,
2559,,"AVENIDA CENTRAL ALA LESTE, SN",,-3.748956,-38.471128,,,0,,,
256,,"AVENIDA DOR THEBERGE, 1961",,-3.717812,-38.565999,,,0,,,
2560,,"AVENIDA CENTRAL ALA OESTE, 340 B",,-3.749139,-38.471457,,,0,,,
2562,,"AVENIDA CENTRAL ALA LESTE, 221",,-3.750563,-38.471466,,,0,,,
2563,,"AVENIDA CENTRAL ALA OESTE, 333",,-3.751068,-38.472215,,,0,,,
2565,,"ALAMEDA DAS GRAVIOLAS, 1295",,-3.751766,-38.473675,,,0,,,
2568,,"AVENIDA DAS GRAVIOLAS, 310",,-3.753486,-38.471772,,,0,,,
257,,"AVENIDA DOR THEBERGE, 1698",,-3.716275,-38.565484,,,0,,,
2570,,"ALAMEDA DAS GRAVIOLAS, 291",,-3.752674,-38.471699,,,0,,,
2573,,"AVENIDA BERNARDO MANOEL, 8999",,-3.798055,-38.551312,,,0,,,
2574,,"AVENIDA BERNARDO MANOEL, 8959",,-3.797839,-38.55111,,,0,,,
258,,"AVENIDA DOR THEBERGE, 1637",,-3.715461,-38.56522,,,0,,,
2580,,"RUA MAJOR TELESFORO, 47",,-3.798625,-38.549423,,,0,,,
2583,,"RUA D CJ JD PRIMAVERA, 300",,-3.797177,-38.548774,,,0,,,
2584,,"RUA A CJ ITAPERI, 136",,-3.795662,-38.548325,,,0,,,
2585,,"AVENIDA BERNARDO MANOEL, 3500",,-3.793003,-38.549624,,,0,,,
2586,,"AVENIDA BERNARDO MANOEL, 8341",,-3.792824,-38.549697,,,0,,,
2589,,"RUA BETEL, 1671",,-3.793519,-38.553276,,,0,,,
259,,"AVENIDA FRANCISCO SA, 4487",,-3.714944,-38.564654,,,0,,,
2591,,"AVENIDA BERNARDO MANOEL, 8731",,-3.795728,-38.550607,,,0,,,
2592,,"RUA PARAGUAÇU, 1955",,-3.791492,-38.541179,,,0,,,
2593,,"RUA PARAGUAÇU, 1956",,-3.791435,-38.54116,,,0,,,
2594,,"RUA 2 PLANALTO MIRASSOL, 172",,-3.794078,-38.541736,,,0,,,
2596,,"AVENIDA A VENEZA TROPICAL, 1166",,-3.796128,-38.539923,,,0,,,
2597,,"RUA 2 PLANALTO MIRASSOL, 444",,-3.796389,-38.542243,,,0,,,
2598,,"RUA 2 PLANALTO MIRASSOL, 44",,-3.796363,-38.54224,,,0,,,
2599,,"RUA E VENEZA TROPICAL, 210",,-3.79789,-38.540889,,,0,,,
26,,"AVENIDA PRS CASTELO BRANCO, SN",,-3.700976,-38.58577,,,0,,,
260,,"AVENIDA FRANCISCO SA, 4626",,-3.714544,-38.565806,,,0,,,
2600,,"RUA 8 PLANALTO MIRASSOL, 120",,-3.798452,-38.543381,,,0,,,
2601,,"RUA MATADOURO, 723",,-3.79896,-38.544025,,,0,,,
2603,,"RUA 132 CJ TUPAN MIRIM, 100",,-3.799208,-38.545177,,,0,,,
2605,,"AVENIDA DEDE BRASIL, 4241",,-3.791113,-38.5381,,,0,,,
2606,,"AVENIDA DES GONZAGA, 633",,-3.792487,-38.502029,,,0,,,
2607,,"RUA CHICO LEMOS, 412",,-3.791793,-38.498908,,,0,,,
261,,"AVENIDA FRANCISCO SA, 4780",,-3.713992,-38.5674,,,0,,,
2610,,"RUA CHICO LEMOS, 596",,-3.794425,-38.497729,,,0,,,
2611,,"AVENIDA OLIVEIRA PAIVA, 1105",,-3.795386,-38.495803,,,0,,,
2612,,"AVENIDA OLIVEIRA PAIVA, 1130",,-3.79555,-38.496244,,,0,,,
2613,,"RUA BENJAMIM MOURA, 560",,-3.797605,-38.495621,,,0,,,
2614,,"RUA BENJAMIM MOURA, 559",,-3.797649,-38.495716,,,0,,,
2616,,"RUA MON ANTERO, 735",,-3.798193,-38.49346,,,0,,,
2617,,"AVENIDA OLIVEIRA PAIVA, 1291",,-3.79551,-38.494445,,,0,,,
2618,,"AVENIDA OLIVEIRA PAIVA, 941",,-3.796199,-38.497969,,,0,,,
262,,"AVENIDA FRANCISCO SA, 3990",,-3.716221,-38.56088,,,0,,,
2620,,"AVENIDA DES GONZAGA, 1352",,-3.798601,-38.499274,,,0,,,
2621,,"AVENIDA DESEMBARGADOR GONZAGA, 1316",,-3.798629,-38.499382,,,0,,,
2623,,"AVENIDA DES GONZAGA, SN",,-3.796481,-38.500213,,,0,,,
2624,,"AVENIDA DES GONZAGA, SN",,-3.796549,-38.500329,,,0,,,
2625,,"AVENIDA OLIVEIRA PAIVA, 450",,-3.797409,-38.500408,,,0,,,
2626,,"AVENIDA OLIVEIRA PAIVA, 540",,-3.797416,-38.500622,,,0,,,
2628,,"RUA SABIAGUABA, 2528",,-3.792948,-38.445875,,,0,,,
2629,,"RUA SABIAGUABA, 2494",,-3.792688,-38.445692,,,0,,,
263,,"AVENIDA FRANCISCO SA, 4237",,-3.715643,-38.562598,,,0,,,
2630,,"AVENIDA MAESTRO LISBOA, 2280",,-3.805511,-38.448746,,,0,,,
2633,,"AVENIDA MAE MANOEL MAVIGNIER, SN",,-3.806246,-38.441909,,,0,,,
2635,,"AVENIDA ABOLICAO, 4047",,-3.723193,-38.480644,,,0,,,
2639,,"AVENIDA VICENTE DE CASTRO, 4573",,-3.720035,-38.476206,,,0,,,
264,,"AVENIDA FRANCISCO SA, 4316",,-3.715348,-38.56347,,,0,,,
2640,,"AVENIDA VICENTE DE CASTRO, 4999",,-3.719076,-38.475361,,,0,,,
2641,,"AVENIDA JANGADEIROS, 465",,-3.722813,-38.476582,,,0,,,
2644,,"AVENIDA ABOLICAO, 4290",,-3.723578,-38.481016,,,0,,,
2645,,"RUA CORREGO DAS FLORES, 74",,-3.725078,-38.480068,,,0,,,
2647,,"RUA DOR LUIS COSTA, 36",,-3.726311,-38.478296,,,0,,,
2648,,"RUA SANTANA, 310",,-3.725054,-38.480593,,,0,,,
2649,,"RUA LUIS TIBURCIO, 135",,-3.726532,-38.47761,,,0,,,
265,,"AVENIDA FRANCISCO SA, 3780",,-3.716998,-38.558561,,,0,,,
2651,,"AVENIDA JANGADEIROS, 486",,-3.722998,-38.476712,,,0,,,
2652,,"RUA ESTRELA DO ORIENTE, 168",,-3.725406,-38.475105,,,0,,,
2653,,"RUA ESTRELA DO ORIENTE, 151",,-3.727344,-38.475139,,,0,,,
2656,,"RUA MANUEL DE QUEIROZ, 533",,-3.749311,-38.467514,,,0,,,
2657,,"RUA BENTO ALBUQUERQUE, 2500",,-3.748288,-38.469052,,,0,,,
2658,,"RUA FRANCISCO MATOS, SN",,-3.747339,-38.470271,,,0,,,
266,,"AVENIDA FRANCISCO SA, 3783",,-3.716894,-38.558873,,,0,,,
2661,,"AVENIDA SANTOS DUMONT, 7501",,-3.74564,-38.469327,,,0,,,
2662,,"RUA BENTO ALBUQUERQUE, 295",,-3.749099,-38.466627,,,0,,,
2664,,"AVENIDA SANTOS DUMONT, 7700",,-3.747189,-38.46418,,,0,,,
2665,,"AVENIDA SANTOS DUMONT, SN",,-3.747976,-38.462097,,,0,,,
2666,,"AVENIDA SANTOS DUMONT, 7771",,-3.747858,-38.462092,,,0,,,
2667,,"AVENIDA SANTOS DUMONT, 7771",,-3.748513,-38.460058,,,0,,,
2668,,"AVENIDA CASTANHOLEIRAS, 155",,-3.751325,-38.468001,,,0,,,
267,,"AVENIDA FRANCISCO SA, 3990",,-3.716236,-38.560834,,,0,,,
2671,,"RUA CASTANHOLEIRAS, 403",,-3.753198,-38.468601,,,0,,,
2673,,"RUA CASTANHOLEIRAS, 403",,-3.754291,-38.46896,,,0,,,
2674,,"AVENIDA ADENANTERAS, 689",,-3.75459,-38.470093,,,0,,,
2677,,"AVENIDA DIOGUINHO, 3355",,-3.745657,-38.451127,,,0,,,
2679,,"AVENIDA DIOGUINHO, 4046",,-3.748508,-38.449574,,,0,,,
268,,"AVENIDA PASTEUR, 1149",,-3.715585,-38.56032,,,0,,,
2680,,"AVENIDA SANTOS DUMONT, 8060",,-3.747764,-38.452116,,,0,,,
2683,,"AVENIDA DIOGUINHO, SN",,-3.754544,-38.446605,,,0,,,
2685,,"AVENIDA SEN FERNANDES TAVORA, 2876",,-3.755211,-38.597798,,,0,,,
2686,,"AVENIDA SEN FERNANDES TAVORA, 2820",,-3.755312,-38.597272,,,0,,,
2689,,"AVENIDA SEN FERNANDES TAVORA, 2432",,-3.755858,-38.594362,,,0,,,
269,,"AVENIDA PASTEUR, 1060",,-3.715213,-38.560197,,,0,,,
2690,,"AVENIDA SEN FERNANDES TAVORA, 2472",,-3.755608,-38.595667,,,0,,,
2691,,"AVENIDA SEN FERNANDES TAVORA, 2503",,-3.75563,-38.595559,,,0,,,
2694,,"AVENIDA SEN FERNANDES TAVORA, 2115",,-3.757473,-38.591005,,,0,,,
2695,,"AVENIDA SEN FERNANDES TAVORA, 2200",,-3.757056,-38.591778,,,0,,,
2697,,"AVENIDA SEN FERNANDES TAVORA, 2354",,-3.756279,-38.593239,,,0,,,
2698,,"AVENIDA SEN FERNANDES TAVORA, 2334",,-3.756347,-38.593111,,,0,,,
2699,,"RUA PRO EDGAR DE ARRUDA, 1780",,-3.755324,-38.590253,,,0,,,
27,,"AVENIDA PRS CASTELO BRANCO, 5471",,-3.703782,-38.579905,,,0,,,
270,,"AVENIDA PRS CASTELO BRANCO, 2973",,-3.711973,-38.555216,,,0,,,
2700,,"RUA MOCAMBIQUE, 417",,-3.761528,-38.598592,,,0,,,
2701,,"RUA MOCAMBIQUE, 405",,-3.762439,-38.598765,,,0,,,
2703,,"RUA PORTO ALEGRE, 1330",,-3.760405,-38.590304,,,0,,,
2704,,"AVENIDA SEN FERNANDES TAVORA, 1694",,-3.759103,-38.587937,,,0,,,
2705,,"AVENIDA SEN FERNANDES TAVORA, S/N",,-3.758505,-38.589046,,,0,,,
2707,,"RUA PRO EDGAR DE ARRUDA, 1483-B",,-3.756434,-38.588166,,,0,,,
2709,,"RUA MACEIO, 799",,-3.756731,-38.586909,,,0,,,
271,,"AVENIDA PRS CASTELO BRANCO, 2988",,-3.7118,-38.555704,,,0,,,
2710,,"RUA PRO EDGAR DE ARRUDA, 1262",,-3.757515,-38.586141,,,0,,,
2711,,"RUA MACEIO, 309",,-3.755772,-38.58639,,,0,,,
2712,,"RUA CEL MATOS DOURADO, 333 A",,-3.755761,-38.583566,,,0,,,
2713,,"RUA CEL MATOS DOURADO, S/N",,-3.757662,-38.584565,,,0,,,
2714,,"RUA EURICO MEDINA, 170",,-3.755377,-38.5843,,,0,,,
2715,,"RUA EURICO MEDINA, 316",,-3.756539,-38.584915,,,0,,,
2717,,"RUA PRO HERIBALDO COSTA, 681",,-3.75871,-38.583173,,,0,,,
2718,,"RUA MON HIPOLITO BRASIL, 449",,-3.758406,-38.579748,,,0,,,
272,,"AVENIDA PRS CASTELO BRANCO, 2813",,-3.712453,-38.55302,,,0,,,
2720,,"RUA MON HIPOLITO BRASIL, 1000",,-3.757769,-38.580945,,,0,,,
2722,,"RUA HERIBALDO COSTA, SN",,-3.756684,-38.582097,,,0,,,
2723,,"AVENIDA SEN FERNANDES TAVORA, 1607",,-3.759558,-38.58708,,,0,,,
2724,,"RUA CEL MATOS DOURADO, 934",,-3.761052,-38.586349,,,0,,,
2725,,"RUA VITORIA, 1260",,-3.763319,-38.587539,,,0,,,
2726,,"RUA PORTO ALEGRE, 980",,-3.761877,-38.587534,,,0,,,
2727,,"AVENIDA SEN FERNANDES TAVORA, 1236",,-3.761187,-38.58404,,,0,,,
2728,,"AVENIDA SEN FERNANDES TAVORA, 1255",,-3.761182,-38.584049,,,0,,,
2729,,"AVENIDA SEN FERNANDES TAVORA, S/N",,-3.760366,-38.585581,,,0,,,
273,,"AVENIDA PRS CASTELO BRANCO, 2813",,-3.712336,-38.553048,,,0,,,
2730,,"AVENIDA SEN FERNANDES TAVORA, S/N",,-3.760485,-38.585356,,,0,,,
2734,,"RUA PRO HERIBALDO COSTA, 1365",,-3.76374,-38.585831,,,0,,,
2735,,"RUA PRO HERIBALDO COSTA, 892",,-3.760198,-38.583961,,,0,,,
2736,,"AVENIDA GUARANI, 760",,-3.763487,-38.579736,,,0,,,
2737,,"AVENIDA FERNANDES TÁVORA, 738",,-3.763421,-38.579859,,,0,,,
2738,,"AVENIDA SEN FERNANDES TAVORA, 960",,-3.762277,-38.581997,,,0,,,
274,,"RUA FRANCISCO CORDEIRO, 191",,-3.71279,-38.550552,,,0,,,
2740,,"RUA PRO EDGAR DE ARRUDA, 480",,-3.760881,-38.579877,,,0,,,
2741,,"RUA PRO EDGAR DE ARRUDA, S/N",,-3.760934,-38.579769,,,0,,,
2742,,"RUA PDE SA LEITAO, 380",,-3.760051,-38.580423,,,0,,,
2743,,"RUA PDE SA LEITAO, 345",,-3.759941,-38.580365,,,0,,,
2744,,"RUA RENATO VIANA MORAIS, 351",,-3.759923,-38.579268,,,0,,,
2745,,"RUA RENATO VIANA MORAIS, 344",,-3.759965,-38.579187,,,0,,,
2746,,"RUA MON HIPOLITO BRASIL, 449",,-3.759171,-38.578334,,,0,,,
2748,,"AVENIDA CARNEIRO DE MENDONCA, 2197",,-3.758961,-38.576936,,,0,,,
2749,,"RUA PICI, 110",,-3.756695,-38.578834,,,0,,,
275,,"RUA NOSSA SRA DAS GRACAS, 268",,-3.711023,-38.550787,,,0,,,
2751,,"RUA PERNAMBUCO, 1705",,-3.756937,-38.572918,,,0,,,
2752,,"RUA BRASILIA, 149",,-3.758319,-38.57211,,,0,,,
2754,,"RUA PERNAMBUCO, 1849",,-3.755624,-38.574167,,,0,,,
2755,,"RUA PERNAMBUCO, 1857",,-3.755704,-38.574096,,,0,,,
2756,,"RUA NONOEL LOURENÇO, S/N",,-3.762284,-38.572341,,,0,,,
2758,,"RUA ESTADO DO RIO, 611 B",,-3.755892,-38.569196,,,0,,,
2759,,"RUA ESTADO DO RIO, 517",,-3.754763,-38.568486,,,0,,,
276,,"RUA NOSSA SRA DAS GRACAS, 276/B",,-3.711026,-38.55078,,,0,,,
2764,,"RUA ESTADO DO RIO, 942",,-3.758854,-38.571101,,,0,,,
2765,,"RUA RENATO VIANA, 125",,-3.76151,-38.576294,,,0,,,
2766,,"RUA RENATO VIANA, 109",,-3.761539,-38.576239,,,0,,,
2768,,"RUA RENATO VIANA, 286",,-3.760845,-38.577548,,,0,,,
2769,,"RUA PRO EUGENIO ARRUDA, 231",,-3.762,-38.577732,,,0,,,
277,,"AVENIDA PRS CASTELO BRANCO, 2426",,-3.713441,-38.549254,,,0,,,
2770,,"RUA PRO EUGENIO ARRUDA, 250",,-3.762071,-38.577601,,,0,,,
2772,,"AVENIDA CARNEIRO DE MENDONCA, SN",,-3.761046,-38.572483,,,0,,,
2773,,"AVENIDA LINEU MACHADO, 72",,-3.760866,-38.574304,,,0,,,
2778,,"RUA RIO GRANDE DO SUL, 1728",,-3.763194,-38.57042,,,0,,,
2779,,"AVENIDA CARNEIRO DE MENDONCA, 1302",,-3.762005,-38.570692,,,0,,,
278,,"AVENIDA PRS CASTELO BRANCO, 2441",,-3.713406,-38.549774,,,0,,,
2782,,"RUA RIO GRANDE DO SUL, 1390",,-3.760417,-38.56872,,,0,,,
2786,,"RUA RIO GRANDE DO SUL, 1170",,-3.758773,-38.56766,,,0,,,
2787,,"RUA CEARA, 1033",,-3.758581,-38.566313,,,0,,,
2788,,"AVENIDA AMÉRICO BARREIRA, 5284",,-3.757856,-38.562596,,,0,,,
279,,"RUA DOM QUINTINO, 235",,-3.712884,-38.54823,,,0,,,
2790,,"AVENIDA AMÉRICO BARREIRA, 4999",,-3.75809,-38.562583,,,0,,,
2792,,"AVENIDA AMÉRICO BARREIRA, S/N4855",,-3.757125,-38.559815,,,0,,,
2793,,"AVENIDA JOSE BASTOS, SN",,-3.757025,-38.557681,,,0,,,
2795,,"AVENIDA AMÉRICO BARREIRA, 5868",,-3.763047,-38.56619,,,0,,,
2796,,"AVENIDA AMÉRICO BARREIRA, 5626",,-3.760991,-38.56484,,,0,,,
2797,,"AVENIDA AMÉRICO BARREIRA, 5855",,-3.763128,-38.566064,,,0,,,
2798,,"AVENIDA AMÉRICO BARREIRA, 5559",,-3.760876,-38.564602,,,0,,,
2799,,"AVENIDA JOAO PESSOA, 5412",,-3.758576,-38.554957,,,0,,,
28,,"AVENIDA PRS CASTELO BRANCO, 5478",,-3.703621,-38.579853,,,0,,,
280,,"RUA NOSSA SRA DAS GRACAS, 90",,-3.711816,-38.548944,,,0,,,
2800,,"AVENIDA JOAO PESSOA, 5300",,-3.757738,-38.554208,,,0,,,
2801,,"AVENIDA JOSE BASTOS, SN",,-3.755331,-38.555882,,,0,,,
2802,,"AVENIDA JOSE BASTOS, SN",,-3.755261,-38.555652,,,0,,,
2804,,"RUA JULIO CESAR   (D12), 2018",,-3.758906,-38.550333,,,0,,,
2805,,"AVENIDA JOAO PESSOA, 5126",,-3.756499,-38.553112,,,0,,,
2806,,"AVENIDA JOAO PESSOA, 5052",,-3.75615,-38.552846,,,0,,,
2807,,"AVENIDA JOAO PESSOA, 4820",,-3.754529,-38.551359,,,0,,,
2808,,"RUA JULIO CESAR   (D12), 1850",,-3.757714,-38.549383,,,0,,,
281,,"AVENIDA FRANCISCO SA, 3583",,-3.717519,-38.557001,,,0,,,
2810,,"RUA FRE ORLANDO, 300",,-3.756208,-38.547084,,,0,,,
2811,,"RUA FRE ORLANDO, 438",,-3.75719,-38.5479,,,0,,,
2812,,"RUA FRE ORLANDO, 610",,-3.759083,-38.549457,,,0,,,
2814,,"RUA JOAO FIRMINO, 471",,-3.763011,-38.554481,,,0,,,
2815,,"AVENIDA JOAO PESSOA, S/R",,-3.759585,-38.555882,,,0,,,
2816,,"AVENIDA JOAO PESSOA, 5586",,-3.759822,-38.556089,,,0,,,
2818,,"RUA JOAO FIRMINO, 255",,-3.761248,-38.552908,,,0,,,
2819,,"RUA JOAO FIRMINO, 68",,-3.759719,-38.551599,,,0,,,
282,,"RUA JACINTO MATOS, 701",,-3.717271,-38.546573,,,0,,,
2821,,"AVENIDA PRO GOMES DE MATOS, 1285",,-3.763428,-38.547564,,,0,,,
2822,,"RUA ALBERTO MAGNO, 760",,-3.762363,-38.547784,,,0,,,
2823,,"AVENIDA PRO GOMES DE MATOS, 576",,-3.75831,-38.543175,,,0,,,
2824,,"RUA ALBERTO MAGNO, 3.30",,-3.758808,-38.544672,,,0,,,
2825,,"RUA ALBERTO MAGNO, 119",,-3.756943,-38.543025,,,0,,,
2826,,"RUA SAMUEL UCHOA, 413",,-3.755473,-38.544384,,,0,,,
2827,,"RUA FRE ORLANDO, 23",,-3.754947,-38.546042,,,0,,,
2828,,"RUA PRO COSTA MENDES, 539",,-3.755759,-38.54569,,,0,,,
2829,,"AVENIDA PRO GOMES DE MATOS, 36",,-3.754932,-38.540281,,,0,,,
2830,,"AVENIDA SANTANA DO CARIRI, 309",,-3.756742,-38.541829,,,0,,,
2831,,"AVENIDA EXPEDICIONARIOS, 1581",,-3.758531,-38.539189,,,0,,,
2832,,"AVENIDA DOS EXPEDICIONARIOS, 4610",,-3.758734,-38.539323,,,0,,,
2833,,"AVENIDA DOS EXPEDICIONARIOS, 4333",,-3.755881,-38.538451,,,0,,,
2834,,"AVENIDA DOS EXPEDICIONARIOS, 4285",,-3.755935,-38.538389,,,0,,,
2835,,"AVENIDA PRO GOMES DE MATOS, 785",,-3.760138,-38.544745,,,0,,,
2836,,"AVENIDA PRO GOMES DE MATOS, 1005",,-3.761491,-38.545906,,,0,,,
2837,,"RUA ALBERTO MAGNO, 541",,-3.760786,-38.546408,,,0,,,
2838,,"AVENIDA DOS EXPEDICIONARIOS, 4970",,-3.763393,-38.540741,,,0,,,
2839,,"AVENIDA EXPEDICIONARIOS, 4995",,-3.763506,-38.540696,,,0,,,
284,,"AVENIDA PRS CASTELO BRANCO, 2195",,-3.714154,-38.547115,,,0,,,
2840,,"AVENIDA EXPEDICIONARIOS, 4821",,-3.761502,-38.540091,,,0,,,
2841,,"AVENIDA DOS EXPEDICIONARIOS, 5150",,-3.760988,-38.540011,,,0,,,
2842,,"AVENIDA LUCIANO CARNEIRO, 1612",,-3.762102,-38.535767,,,0,,,
2843,,"AVENIDA LUCIANO CARNEIRO, 1770",,-3.76358,-38.536212,,,0,,,
2845,,"AVENIDA BORGES DE MELO, 1771",,-3.756116,-38.534401,,,0,,,
2846,,"AVENIDA LUCIANO CARNEIRO, 869",,-3.755905,-38.533961,,,0,,,
2847,,"AVENIDA LUCIANO CARNEIRO, 1110",,-3.756891,-38.534258,,,0,,,
2848,,"AVENIDA LUCIANO CARNEIRO, 869",,-3.755968,-38.53389,,,0,,,
285,,"AVENIDA DEDE BRASIL, 1151",,-3.782017,-38.55597,,,0,,,
2850,,"AVENIDA OSWALDO STUDART, S/R",,-3.757169,-38.531206,,,0,,,
2852,,"RUA GRACILIANO RAMOS, 278",,-3.755113,-38.528366,,,0,,,
2853,,"RUA BARTOLOMEU DE GUSMAO, 1040",,-3.758065,-38.526241,,,0,,,
2854,,"RUA FRANCOIS T MENEZES, 50",,-3.756248,-38.525949,,,0,,,
2855,,"RUA FRANCISCO LORDA, 493",,-3.761388,-38.533579,,,0,,,
2856,,"AVENIDA LUCIANO CARNEIRO, 1320",,-3.759143,-38.53496,,,0,,,
2857,,"AVENIDA LUCIANO CARNEIRO, 1333",,-3.759927,-38.535106,,,0,,,
2858,,"AVENIDA BORGES DE MELO, 1307",,-3.759966,-38.530133,,,0,,,
2859,,"RUA JORGE ACURCIO, 312",,-3.7626,-38.530618,,,0,,,
286,,"AVENIDA DEDÉ BRASIL, 1163",,-3.782276,-38.555687,,,0,,,
2860,,"RUA FRANCISCO LORDA, 260",,-3.762011,-38.531583,,,0,,,
2863,,"AVENIDA BORGES DE MELO, 910",,-3.760575,-38.527658,,,0,,,
2864,,"AVENIDA BORGES DE MELO, 764",,-3.760644,-38.525897,,,0,,,
2865,,"AVENIDA BORGES DE MELO, 855",,-3.760764,-38.525893,,,0,,,
2866,,"AVENIDA SEN FERNANDES TAVORA, 440",,-3.764922,-38.577043,,,0,,,
2868,,"AVENIDA LINEU MACHADO, 657",,-3.765959,-38.576934,,,0,,,
2869,,"AVENIDA LINEU MACHADO, 657",,-3.765851,-38.576879,,,0,,,
287,,"AVENIDA DEDÉ BRASIL, 1341",,-3.783257,-38.554412,,,0,,,
2872,,"AVENIDA LINEU MACHADO, 430",,-3.764006,-38.575853,,,0,,,
2873,,"AVENIDA LINEU MACHADO, 430",,-3.763982,-38.575976,,,0,,,
2874,,"AVENIDA SEN FERNANDES TAVORA, 325",,-3.765913,-38.575241,,,0,,,
2875,,"AVENIDA SEN FERNANDES TAVORA, 430",,-3.766201,-38.574715,,,0,,,
2876,,"AVENIDA SEN FERNANDES TAVORA, 99",,-3.767265,-38.573453,,,0,,,
2877,,"AVENIDA SEN FERNANDES TAVORA, 106",,-3.767299,-38.57343,,,0,,,
2878,,"RUA RIO GRANDE DO SUL, 2190",,-3.767805,-38.572097,,,0,,,
288,,"RUA SUECIA, 1395",,-3.786412,-38.554778,,,0,,,
2880,,"RUA RIO GRANDE DO SUL, 2038",,-3.765826,-38.571598,,,0,,,
2883,,"RUA RIO GRANDE DO SUL, 1908",,-3.764432,-38.571221,,,0,,,
2884,,"AVENIDA AUGUSTO DOS ANJOS, 312",,-3.771746,-38.571565,,,0,,,
2885,,"RUA PRO GOMES BRASIL, 367",,-3.772229,-38.568972,,,0,,,
2886,,"RUA PROFESSOR GOMES BRASIL, 306",,-3.772953,-38.568243,,,0,,,
2888,,"RUA ALUISIO AZEVEDO, 371",,-3.771804,-38.576162,,,0,,,
2889,,"AVENIDA AMÉRICO BARREIRA, 6180",,-3.765614,-38.567809,,,0,,,
2890,,"AVENIDA AMÉRICO BARREIRA, 6180",,-3.765683,-38.567696,,,0,,,
2891,,"AVENIDA CARNEIRO DE MENDONCA, 664",,-3.76478,-38.565482,,,0,,,
2892,,"AVENIDA CARNEIRO DE MENDONCA, 398",,-3.76587,-38.563059,,,0,,,
2893,,"AVENIDA CARNEIRO DE MENDONCA, 416",,-3.765799,-38.563233,,,0,,,
2894,,"AVENIDA CARNEIRO DE MENDONCA, 140",,-3.766661,-38.561176,,,0,,,
2895,,"AVENIDA CARNEIRO DE MENDONCA, 91",,-3.767041,-38.560272,,,0,,,
2896,,"AVENIDA JOAO PESSOA, 6411",,-3.766072,-38.559327,,,0,,,
2897,,"AVENIDA JOAO PESSOA, 6411",,-3.766207,-38.559382,,,0,,,
2898,,"RUA 15 DE NOVEMBRO, 122",,-3.767921,-38.558743,,,0,,,
2899,,"AVENIDA JOAO PESSOA, 6497",,-3.770134,-38.561004,,,0,,,
290,,"RUA GOV JOAO CARLOS, 855",,-3.782599,-38.553372,,,0,,,
2900,,"AVENIDA JOAO PESSOA, 6754",,-3.769233,-38.560634,,,0,,,
2901,,"AVENIDA JOAO PESSOA, 7043",,-3.771531,-38.56158,,,0,,,
2909,,"RUA ALBERTO MAGNO, 1369",,-3.765999,-38.550964,,,0,,,
291,,"RUA DOR JUSTA ARAUJO   (D45), 697",,-3.781937,-38.55235,,,0,,,
2912,,"AVENIDA PRO GOMES DE MATOS, 1889",,-3.767742,-38.551277,,,0,,,
2913,,"AVENIDA JOSE DO PATROCINIO, 1409",,-3.765963,-38.546737,,,0,,,
2914,,"AVENIDA PRO GOMES DE MATOS, 1499",,-3.764877,-38.548831,,,0,,,
2915,,"AVENIDA PROF GOMES DE MATOS, 1677",,-3.766261,-38.54999,,,0,,,
2916,,"RUA ISAIAS BORIS, 538",,-3.76756,-38.549788,,,0,,,
2917,,"RUA SAUDADE, 159",,-3.768562,-38.549043,,,0,,,
2919,,"RUA EQUADOR, 191",,-3.769121,-38.550805,,,0,,,
292,,"AVENIDA AV. DEDÉ BRASIL, 2333",,-3.78581,-38.551155,,,0,,,
2922,,"RUA CESAR ROSSAS, 115",,-3.768707,-38.553235,,,0,,,
2923,,"RUA ANTONIO FIUZA, 154",,-3.770034,-38.552152,,,0,,,
2924,,"RUA 15 DE NOVEMBRO, 960",,-3.770411,-38.551784,,,0,,,
2926,,"RUA EQUADOR, 371",,-3.771978,-38.551781,,,0,,,
2927,,"RUA 15 DE NOVEMBRO, 722",,-3.769672,-38.553817,,,0,,,
2928,,"RUA CESAR ROSSAS, 550",,-3.769353,-38.555415,,,0,,,
293,,"AVENIDA DR. SILAS MUNGUBA, 2259",,-3.785809,-38.551494,,,0,,,
2930,,"RUA ALM RUBIM, 1459",,-3.770284,-38.556431,,,0,,,
2932,,"RUA ALM RUBIM, 1445",,-3.771971,-38.557022,,,0,,,
2934,,"RUA TEODORICO BARROSO, 790",,-3.765652,-38.544885,,,0,,,
2935,,"RUA TEODORICO BARROSO, 612",,-3.766075,-38.543522,,,0,,,
2936,,"RUA RAUL CABRAL, 750",,-3.768293,-38.545649,,,0,,,
2937,,"RUA TEODORICO BARROSO, 472",,-3.76653,-38.542061,,,0,,,
2938,,"AVENIDA DOS EXPEDICIONARIOS, 5420",,-3.76728,-38.541946,,,0,,,
2939,,"AVENIDA EXPEDICIONARIOS, 5468",,-3.767593,-38.54196,,,0,,,
294,,"AVENIDA AV. DEDÉ BRASIL, 2670",,-3.786493,-38.549856,,,0,,,
2940,,"AVENIDA EXPEDICIONARIOS, 5217",,-3.765957,-38.541456,,,0,,,
2941,,"AVENIDA DOS EXPEDICIONARIOS, 5151",,-3.764879,-38.541204,,,0,,,
2943,,"AVENIDA LUCIANO CARNEIRO, 2235",,-3.767565,-38.537551,,,0,,,
2944,,"AVENIDA LUCIANO CARNEIRO, 2123",,-3.766889,-38.537253,,,0,,,
2945,,"RUA ALM RUFINO, 772",,-3.766752,-38.536731,,,0,,,
2947,,"RUA HELVECIO MONTE, 771",,-3.766058,-38.536587,,,0,,,
2949,,"AVENIDA LUCIANO CARNEIRO, 1820",,-3.765192,-38.536732,,,0,,,
295,,"AVENIDA BERNARDO MANOEL, 7730",,-3.786357,-38.54764,,,0,,,
2952,,"RUA LINEU JUCA, 481",,-3.767946,-38.535699,,,0,,,
2953,,"AVENIDA LUCIANO CARNEIRO, 2384",,-3.769081,-38.538005,,,0,,,
2954,,"AVENIDA LUCIANO CARNEIRO, 2500",,-3.769992,-38.538196,,,0,,,
2955,,"AVENIDA LUCIANO CARNEIRO, 2470",,-3.770638,-38.53848,,,0,,,
2956,,"AVENIDA LUCIANO CARNEIRO, 2655",,-3.77165,-38.538706,,,0,,,
2957,,"AVENIDA LAURO VIEIRA CHAVES, 1042",,-3.771713,-38.53571,,,0,,,
2958,,"AVENIDA JORGE ACÚRCIO, SN",,-3.772643,-38.535719,,,0,,,
2960,,"AVENIDA LAURO VIEIRA CHAVES, 1538",,-3.771689,-38.541403,,,0,,,
2961,,"AVENIDA EXPEDICIONARIOS, 5677",,-3.76996,-38.542681,,,0,,,
2962,,"AVENIDA LAURO VIEIRA CHAVES, 1731",,-3.770988,-38.543004,,,0,,,
2963,,"AVENIDA DOS EXPEDICIONARIOS, 5612",,-3.769163,-38.542513,,,0,,,
2964,,"RUA RAUL CABRAL, 580",,-3.769239,-38.543748,,,0,,,
2965,,"RUA SAUDADE, 415",,-3.769302,-38.546121,,,0,,,
2966,,"AVENIDA OLIVEIRA PAIVA, 233",,-3.798532,-38.503074,,,0,,,
2968,,"RUA DOM MARCOS TEIXEIRA, 236",,-3.799445,-38.507633,,,0,,,
297,,"AVENIDA BERNARDO MANOEL, 7410",,-3.783717,-38.546849,,,0,,,
2970,,"RUA PDE PAULINO, 330",,-3.798061,-38.50886,,,0,,,
2971,,"RUA TIBURCIO PEREIRA, 340",,-3.796759,-38.508576,,,0,,,
2972,,"RUA MARGARIDA DE QUEIROZ, 406",,-3.796947,-38.510508,,,0,,,
2973,,"AVENIDA LAURO VIEIRA CHAVES, 225",,-3.773533,-38.529733,,,0,,,
2974,,"RUA GONCALO SOUTO, 201",,-3.768801,-38.53079,,,0,,,
2975,,"RUA GONCALO SOUTO, 415",,-3.768687,-38.530745,,,0,,,
2977,,"RUA ALM RUFINO, 170",,-3.768678,-38.531768,,,0,,,
2980,,"RUA LAURO VIEIRA CHAVES, SN",,-3.772166,-38.534816,,,0,,,
2981,,"AVENIDA LAURO VIEIRA CHAVES, 840",,-3.771961,-38.534458,,,0,,,
2982,,"AVENIDA LAURO VIEIRA CHAVES, 811",,-3.772279,-38.533247,,,0,,,
2985,,"RUA HELVECIO MONTE, 410",,-3.767406,-38.533076,,,0,,,
2986,,"RUA HELVECIO MONTE, 590",,-3.766704,-38.534894,,,0,,,
2987,,"RUA JORGE ACURCIO, 664",,-3.765915,-38.532034,,,0,,,
2988,,"RUA 13 DE ABRIL, 650",,-3.764516,-38.530947,,,0,,,
2989,,"RUA 13 DE ABRIL, 274",,-3.764599,-38.530741,,,0,,,
2990,,"RUA 13 DE ABRIL, 170",,-3.765016,-38.529809,,,0,,,
2992,,"RUA GONCALO SOUTO, 207",,-3.76723,-38.530167,,,0,,,
2993,,"RUA GONCALO SOUTO, 167",,-3.767065,-38.530101,,,0,,,
2994,,"RUA TEN BARBOSA    (D46), 400",,-3.766692,-38.511689,,,0,,,
2997,,"RUA TEN BARBOSA    (D46), 341",,-3.765751,-38.511856,,,0,,,
2998,,"RUA CAP ARAGAO, 600",,-3.764806,-38.51249,,,0,,,
2999,,"RUA CAP ARAGAO, 670",,-3.764781,-38.512382,,,0,,,
3,,"AVENIDA RAD JOSE LIMA VERDE, 590",,-3.697854,-38.58693,,,0,,,
30,,"AVENIDA PRESIDENTE CASTELO BRANCO, 5818",,-3.702494,-38.582524,,,0,,,
300,,"AVENIDA DEDÉ BRASIL, 2939",,-3.7878,-38.547557,,,0,,,
3000,,"RUA CAP ARAGAO, 882",,-3.764362,-38.510287,,,0,,,
3001,,"RUA CAP ARAGAO, 882",,-3.764383,-38.510391,,,0,,,
3007,,"AVENIDA DOR RAUL BARBOSA, 5482",,-3.76744,-38.509412,,,0,,,
301,,"AVENIDA DEDE BRASIL, 2919",,-3.787686,-38.547596,,,0,,,
3010,,"RUA TEN JAIME ANDRADE, 371",,-3.77117,-38.513455,,,0,,,
3013,,"RUA ASP MENDES, 1070",,-3.771869,-38.513648,,,0,,,
3014,,"AVENIDA DOR RAUL BARBOSA, 6620",,-3.772304,-38.512194,,,0,,,
3017,,"AVENIDA DOR RAUL BARBOSA, 5970",,-3.769703,-38.510506,,,0,,,
3018,,"AVENIDA MURILO BORGES, SN",,-3.767585,-38.497413,,,0,,,
302,,"AVENIDA BERNARDO MANOEL, 7963",,-3.789163,-38.548438,,,0,,,
3020,,"RUA DOR THOMPSON BULCAO, 853",,-3.767949,-38.496645,,,0,,,
3022,,"AVENIDA ROGACIANO LEITE, 2001",,-3.768095,-38.497071,,,0,,,
3023,,"AVENIDA ROGACIANO LEITE, 1140",,-3.768503,-38.49737,,,0,,,
3024,,"AVENIDA ROGACIANO LEITE, 986",,-3.765323,-38.495873,,,0,,,
3025,,"AVENIDA ROGACIANO LEITE, 970",,-3.765427,-38.495804,,,0,,,
3026,,"RUA DOURALICE COSTA, 650",,-3.769796,-38.496613,,,0,,,
3027,,"AVENIDA ROGACIANO LEITE, 1815",,-3.770754,-38.498025,,,0,,,
3028,,"AVENIDA ROGACIANO LEITE, 2027",,-3.772557,-38.498595,,,0,,,
3029,,"AVENIDA ROGACIANO LEITE, 2120",,-3.772982,-38.498845,,,0,,,
303,,"AVENIDA BERNARDO MANOEL, 7940",,-3.78874,-38.548438,,,0,,,
3030,,"RUA J CJ SANTA LUZIA, 99",,-3.770342,-38.494944,,,0,,,
3032,,"RUA DOR THOMPSON BULCAO, 703",,-3.7687,-38.494961,,,0,,,
3034,,"RUA THAMPON BULCÃO, 584",,-3.769465,-38.493239,,,0,,,
3035,,"RUA DORALICE COSTA, 280",,-3.77092,-38.493233,,,0,,,
3036,,"RUA REV BOLIVAR P BANDEIRA, 119",,-3.771104,-38.492431,,,0,,,
3037,,"RUA LEON GRADVOHL, 697",,-3.799891,-38.567554,,,0,,,
3038,,"RUA LEON GRADVOHL, 698",,-3.800002,-38.56761,,,0,,,
3039,,"RUA VIDAL DE NEGREIROS, 437",,-3.800056,-38.565231,,,0,,,
3040,,"RUA VIDAL DE NEGREIROS, 412",,-3.800115,-38.565312,,,0,,,
3041,,"RUA 1 CAMPO DOS INGLESES, 71",,-3.801177,-38.56571,,,0,,,
3042,,"RUA 1 CAMPO DOS INGLESES, 52",,-3.801109,-38.565757,,,0,,,
3043,,"RUA 1 CAMPO DOS INGLESES, 300",,-3.802896,-38.564511,,,0,,,
3044,,"RUA 1 CAMPO DOS INGLESES, 211",,-3.80278,-38.564593,,,0,,,
3045,,"RUA 10 CAMPO DOS INGLESES, 270",,-3.8003,-38.563828,,,0,,,
3046,,"RUA 10 CAMPO DOS INGLESES, 272",,-3.800282,-38.563734,,,0,,,
3047,,"RUA 5 CAMPO DOS INGLESES, 156",,-3.801463,-38.563063,,,0,,,
3048,,"RUA 5 CAMPO DOS INGLESES, 175",,-3.80153,-38.563015,,,0,,,
3049,,"RUA CEL JAIME ROLEMBERG, 334",,-3.803318,-38.563273,,,0,,,
3050,,"RUA CEL JAIME ROLEMBERG, 431",,-3.803293,-38.563238,,,0,,,
3051,,"AVENIDA HOLANDA, 1648",,-3.802271,-38.560177,,,0,,,
3052,,"AVENIDA HOLANDA, 1574",,-3.80175,-38.560362,,,0,,,
3053,,"AVENIDA HOLANDA, 1670",,-3.803299,-38.559747,,,0,,,
3054,,"RUA ANTONIO DIVINO, 101",,-3.803947,-38.559913,,,0,,,
3055,,"RUA ANTONIO DIVINO, 108",,-3.804082,-38.560123,,,0,,,
